eventdate,ActionGeo_FullName,tone,ActionGeo_Lat,ActionGeo_Long
2015-04-12,"Pleasant Hill, Iowa, United States",0.914285714285714,41.5839,-93.5199
2015-04-12,"Monticello, Iowa, United States",-0.005347920600302776,42.2383,-91.1871
2015-04-12,"Jackson County, Iowa, United States",-0.230326295585412,42.1667,-90.5835
2015-04-12,"Burlington, Iowa, United States",0.267379679144385,40.8075,-91.1129
2015-04-12,"Louisa County, Iowa, United States",-0.62305295950156,41.2334,-91.2668
2015-04-12,"Hurstville, Iowa, United States",6.56424581005587,42.0975,-90.6832
2015-04-12,"Mitchell County, Iowa, United States",-1.8018018018018,43.35,-92.7835
2015-04-12,"Mapleton, Iowa, United States",1.23893805309734,42.1658,-95.7931
2015-04-12,"Dubuque County, Iowa, United States",-1.24879923150816,42.4833,-90.8668
2015-04-12,"Woodbury County, Iowa, United States",1.6666666666666698,42.3833,-96.0336
2015-04-12,"Carroll County, Iowa, United States",-0.46875,42.0333,-94.8836
2015-04-12,"Coe College, Iowa, United States",0.5714285714285733,41.9864,-91.6571
2015-04-12,"Hiawatha, Iowa, United States",-0.353982300884955,42.0358,-91.6821
2015-04-12,"Interstate, Iowa, United States",-1.8365472910927434,41.6961,-92.7269
2015-04-12,"Des Moines, Iowa, United States",5.934607631132594E-4,41.6005,-93.6091
2015-04-12,"Peosta, Iowa, United States",-1.8085106382978726,42.4506,-90.8504
2015-04-12,"Urbandale, Iowa, United States",-0.81798647534582,41.6267,-93.7122
2015-04-12,"Council Bluffs, Iowa, United States",0.05520844954535878,41.2619,-95.8608
2015-04-12,"Muscatine, Iowa, United States",-0.1428214618320031,41.4245,-91.0432
2015-04-12,"Calhoun County, Iowa, United States",-1.24610591900312,42.3833,-94.6503
2015-04-12,"West Des Moines, Iowa, United States",0.10526824606973764,41.5772,-93.7113
2015-04-12,"Dry Run Creek, Iowa, United States",-1.23180291153416,43.1869,-96.3625
2015-04-12,"Marshalltown, Iowa, United States",-0.16865872888909217,42.0494,-92.908
2015-04-12,"Spirit Lake, Iowa, United States",0.42643923240938,43.4222,-95.1022
2015-04-12,"Williamsburg, Iowa, United States",3.282122905027935,41.6611,-92.0091
2015-04-12,"Cedar Falls, Iowa, United States",0.36899559259447057,42.5278,-92.4455
2015-04-12,"Brooklyn, Iowa, United States",-0.027990111147221913,41.7336,-92.4455
2015-04-12,"Hancock County, Iowa, United States",1.04712041884817,43.0833,-93.7169
2015-04-12,"Indianola, Iowa, United States",0.05357475739168204,41.358,-93.5574
2015-04-12,"Greenville, Iowa, United States",0.036995930447650004,43.0166,-95.1461
2015-04-12,"Water Works Park, Iowa, United States",1.875,41.3545,-92.6574
2015-04-12,"Charter Oak, Iowa, United States",1.23893805309734,42.0683,-95.5917
2015-04-12,"Linn County, Iowa, United States",0.2677376171352,42.0667,-91.6002
2015-04-12,"Dallas County, Iowa, United States",0.0,41.6833,-94.0502
2015-04-12,"United Methodist Church, Iowa, United States",0.7619047619047618,43.4294,-96.1722
2015-04-12,"Dover, Iowa, United States",0.242849433351325,41.8481,-92.2932
2015-04-12,"Fort Dodge, Iowa, United States",0.05209261437209859,42.4975,-94.168
2015-04-12,"Shell Rock, Iowa, United States",-0.2513274336283184,42.7103,-92.583
2015-04-12,"Sioux City, Iowa, United States",-0.21970585348125699,42.5,-96.4003
2015-04-12,"Veterans Park, Iowa, United States",0.5429462594545228,43.0783,-94.2361
2015-04-12,"Wartburg Chapel, Iowa, United States",1.480637813211845,42.7269,-92.4824
2015-04-12,"Northpark Mall, Iowa, United States",-0.45146726862302405,41.5631,-90.5743
2015-04-12,"Mason City, Iowa, United States",-0.10981400112056318,43.1536,-93.201
2015-04-12,"Altoona, Iowa, United States",-3.88994307400379,41.6442,-93.4647
2015-04-12,"Wheatland, Iowa, United States",0.2755905511811,41.8317,-90.8382
2015-04-12,"The Commons, Iowa, United States",0.0,41.9258,-91.4257
2015-04-12,"Polk County, Iowa, United States",-0.11066282767123824,41.6833,-93.5835
2015-04-12,"Kirkwood Community College, Iowa, United States",-0.0893766617606277,41.9122,-91.6535
2015-04-12,"Keosauqua, Iowa, United States",-0.025457434412935867,40.7303,-91.9624
2015-04-12,"Black Hawk County, Iowa, United States",0.06601869554745725,42.4667,-92.3168
2015-04-12,"Cedar Valley, Iowa, United States",-0.05173801566939315,41.7264,-91.2466
2015-04-12,"Adventist Church, Iowa, United States",0.09223201475712232,41.6128,-94.9767
2015-04-12,"Cedar Rapids, Iowa, United States",-0.036900570664988856,42.0083,-91.6441
2015-04-11,"Benton County, Iowa, United States",-6.84931506849315,42.0667,-92.0668
2015-04-11,"Pleasant Hill, Iowa, United States",1.751313485113835,41.5839,-93.5199
2015-04-11,"Plymouth County, Iowa, United States",2.73556231003039,42.7333,-96.2336
2015-04-11,"Saylorville, Iowa, United States",3.1674208144796396,41.6786,-93.6297
2015-04-11,"Louisa County, Iowa, United States",2.58064516129032,41.2334,-91.2668
2015-04-11,"Trinity Episcopal Church, Iowa, United States",0.5656329237370766,43.1125,-94.68
2015-04-11,"Cedar Valley, Iowa, United States",0.006851280280955393,41.7264,-91.2466
2015-04-11,"Urbana, Iowa, United States",-1.98135198135198,42.2242,-91.8743
2015-04-11,"Concord Care Center, Iowa, United States",-1.1111111111111134,43.0911,-93.6085
2015-04-11,"City Of Ames, Iowa, United States",-1.6704631738800297,42.0255,-93.6269
2015-04-11,"Mackay Hall, Iowa, United States",-2.505694760820045,42.0283,-93.6472
2015-04-11,"Cerro Gordo County, Iowa, United States",-4.27807486631016,43.0833,-93.2669
2015-04-11,"Peosta, Iowa, United States",-1.6740505134621186,42.4506,-90.8504
2015-04-11,"Floyd River, Iowa, United States",-0.29673590504451003,42.4831,-96.3917
2015-04-11,"Galesburg, Iowa, United States",2.41448692152917,41.5589,-92.9463
2015-04-11,"Indianola, Iowa, United States",0.0264131008980466,41.358,-93.5574
2015-04-11,"Raccoon River, Iowa, United States",-1.41752577319588,41.5794,-93.6122
2015-04-11,"Morningside, Iowa, United States",0.0,42.4689,-96.3592
2015-04-11,"Madison County, Iowa, United States",-2.8100775193798464,41.3333,-94.0169
2015-04-11,"Fort Dodge, Iowa, United States",-0.8474223727181392,42.4975,-94.168
2015-04-11,"Burlington, Iowa, United States",1.020408163265305,40.8075,-91.1129
2015-04-11,"Des Moines, Iowa, United States",0.004719389138660424,41.6005,-93.6091
2015-04-11,"Jefferson County, Iowa, United States",0.06657789613848,41.0334,-91.9502
2015-04-11,"Mason City, Iowa, United States",-0.2085603158661649,43.1536,-93.201
2015-04-11,"Glenwood Police Department, Iowa, United States",-1.6736401673640167,41.0461,-95.7397
2015-04-11,"Pottawattamie County, Iowa, United States",-6.55105973025049,41.3333,-95.5336
2015-04-11,"Spirit Lake, Iowa, United States",0.42643923240938,43.4222,-95.1022
2015-04-11,"Wheatland, Iowa, United States",-2.10696920583468,41.8317,-90.8382
2015-04-11,"Nora Springs, Iowa, United States",0.362647325475975,43.1427,-93.0044
2015-04-11,"Charles City, Iowa, United States",0.2823860727086525,43.0664,-92.6724
2015-04-11,"Estherville, Iowa, United States",-0.5856107083100954,43.4016,-94.8328
2015-04-11,"Grotto Of The Redemption, Iowa, United States",0.21276595744681,42.965,-94.4447
2015-04-11,"Marshalltown, Iowa, United States",-0.5728506502519674,42.0494,-92.908
2015-04-11,"Emmetsburg, Iowa, United States",-3.74161611306263,43.1127,-94.683
2015-04-11,"Cedar Rapids, Iowa, United States",0.09168801988971126,42.0083,-91.6441
2015-04-11,"Sioux City, Iowa, United States",0.02477202566571416,42.5,-96.4003
2015-04-11,"Fort Madison, Iowa, United States",-1.9806764746175756,40.6298,-91.3151
2015-04-11,"Johnson County, Iowa, United States",-0.370919881305635,41.6667,-91.5335
2015-04-11,"Mary Greeley Medical Center, Iowa, United States",-2.505694760820045,42.0327,-93.6117
2015-04-11,"Sergeant Bluff, Iowa, United States",-0.22255192878338248,42.4039,-96.3586
2015-04-11,"Story County, Iowa, United States",-0.7202799678957552,42.0333,-93.4669
2015-04-11,"Linn County, Iowa, United States",0.09627727856226,42.0667,-91.6002
2015-04-11,"Muscatine County, Iowa, United States",1.69689877121123,41.4667,-91.1335
2015-04-11,"East Buchanan Community School, Iowa, United States",1.2947189097103924,42.3955,-91.7588
2015-04-11,"Garwin, Iowa, United States",-1.05348460291734,42.0936,-92.6758
2015-04-11,"Osage Cemetery, Iowa, United States",1.171875,43.2919,-92.8213
2015-04-11,"Cresco, Iowa, United States",-5.49645390070925,43.3814,-92.1141
2015-04-11,"Dubuque Regional Airport, Iowa, United States",-1.8768528724849856,42.4042,-90.7041
2015-04-11,"Wapello, Iowa, United States",0.298151460942155,41.1814,-91.1854
2015-04-11,"Jasper County, Iowa, United States",0.0,41.6833,-93.0502
2015-04-11,"Boone County, Iowa, United States",-0.5729945191828599,42.0333,-93.9336
2015-04-11,"Ionia, Iowa, United States",0.26246719160105,43.0341,-92.456
2015-04-11,"Orange City, Iowa, United States",-0.3571428571428575,43.0072,-96.0583
2015-04-11,"Howard County, Iowa, United States",-5.49645390070925,43.35,-92.3168
2015-04-11,"Mason City Public Library, Iowa, United States",0.636942675159235,43.1494,-93.1974
2015-04-11,"Port Richmond, Iowa, United States",0.71090047393365,41.0075,-92.4321
2015-04-11,"Des Moines Police Department, Iowa, United States",-2.18978102189781,41.5861,-93.6155
2015-04-11,"Oakdale, Iowa, United States",-2.1472392638036832,41.7064,-91.603
2015-04-11,"Quasqueton, Iowa, United States",1.07893242475866,42.3944,-91.761
2015-04-11,"Emmet County, Iowa, United States",-1.0306384456211002,43.3744,-94.6669
2015-04-11,"Black Hawk County, Iowa, United States",0.0448987400705772,42.4667,-92.3168
2015-04-11,"Polk County, Iowa, United States",-0.08377920114920563,41.6833,-93.5835
2015-04-11,"Musser Public Library, Iowa, United States",0.33937975424224603,41.4222,-91.0474
2015-04-11,"Beloit, Iowa, United States",-0.24727992087042333,43.2814,-96.5748
2015-04-11,"Muscatine, Iowa, United States",-0.09572085146577518,41.4245,-91.0432
2015-04-11,"Cedar Falls, Iowa, United States",0.3463392173783696,42.5278,-92.4455
2015-04-11,"Small Business Development Center, Iowa, United States",0.0,41.6011,-93.6505
2015-04-11,"Brooklyn, Iowa, United States",-0.05819784745599197,41.7336,-92.4455
2015-04-11,"Council Bluffs, Iowa, United States",0.10861020640766894,41.2619,-95.8608
2015-04-11,"Ottumwa, Iowa, United States",-0.09990009990010001,41.02,-92.4113
2015-04-11,"Mount Pleasant, Iowa, United States",-2.362804878048785,40.9636,-91.5579
2015-04-11,"First United Methodist Church, Iowa, United States",6.13026819923372,42.7897,-96.1653
2015-04-11,"Hancock County, Iowa, United States",-0.5493014529159101,43.0833,-93.7169
2015-04-11,"Des Moines River, Iowa, United States",3.1674208144796396,41.3812,-91.4224
2015-04-10,"Des Moines Police Department, Iowa, United States",-1.6656615260905774,41.5861,-93.6155
2015-04-10,"Little Sioux, Iowa, United States",-5.08474576271186,41.8094,-96.0211
2015-04-10,"Johnson County, Iowa, United States",0.46194517130123053,41.6667,-91.5335
2015-04-10,"Dubuque County, Iowa, United States",-0.30549898167006,42.4833,-90.8668
2015-04-10,"Charles City High School, Iowa, United States",0.25,43.0622,-92.6569
2015-04-10,"Hiawatha, Iowa, United States",0.29379764990871565,42.0358,-91.6821
2015-04-10,"Living History Farms, Iowa, United States",6.10169491525424,41.6183,-93.7736
2015-04-10,"College Of Design, Iowa, United States",0.377358490566035,42.0286,-93.653
2015-04-10,"Wapello, Iowa, United States",0.054027241055337856,41.1814,-91.1854
2015-04-10,"Johnson County Jail, Iowa, United States",-12.830188679245301,41.655,-91.5366
2015-04-10,"Mercy Medical Center, Iowa, United States",0.9037745879851101,41.5988,-93.6233
2015-04-10,"Grinnell College, Iowa, United States",-1.7751479289940832,41.7486,-92.7202
2015-04-10,"College Of Veterinary Medicine, Iowa, United States",-4.76190476190476,42.0072,-93.6324
2015-04-10,"Tama County, Iowa, United States",-6.692913385826751,42.0667,-92.5335
2015-04-10,"Oskaloosa, Iowa, United States",1.27118644067797,41.2964,-92.6444
2015-04-10,"Lakeview, Iowa, United States",5.39956803455723,42.3069,-95.0517
2015-04-10,"Cedar Rapids, Iowa, United States",-0.0046855749360356575,42.0083,-91.6441
2015-04-10,"Rock Creek, Iowa, United States",0.2812939521800289,43.235,-92.9188
2015-04-10,"Storm Lake, Iowa, United States",0.84602368866328,42.6411,-95.2097
2015-04-10,"University Of Iowa, Iowa, United States",-0.088652482269505,41.6617,-91.5363
2015-04-10,"Physical Plant, Iowa, United States",0.029908778226410002,41.3639,-93.5622
2015-04-10,"Cresco, Iowa, United States",0.0625,43.3814,-92.1141
2015-04-10,"Scott County, Iowa, United States",-6.37254901960785,41.6334,-90.6335
2015-04-10,"Buchanan Elementary School, Iowa, United States",0.5464480874316934,41.5661,-90.6288
2015-04-10,"Mount Vernon, Iowa, United States",0.5273559045286199,41.922,-91.4168
2015-04-10,"North Liberty, Iowa, United States",-0.059101654846336685,41.7492,-91.5979
2015-04-10,"Sioux County, Iowa, United States",-3.2374100719424495,42.7333,-96.2336
2015-04-10,"Mason City, Iowa, United States",-0.5766526723222054,43.1536,-93.201
2015-04-10,"Hampton Police Department, Iowa, United States",0.395778364116095,42.7422,-93.2091
2015-04-10,"Fort Madison, Iowa, United States",-1.9919756968852367,40.6298,-91.3151
2015-04-10,"Sioux City, Iowa, United States",-0.3171034019638145,42.5,-96.4003
2015-04-10,"Urbandale, Iowa, United States",-0.06645013596188919,41.6267,-93.7122
2015-04-10,"Black Hawk County, Iowa, United States",0.038942942795605826,42.4667,-92.3168
2015-04-10,"Algona Police Department, Iowa, United States",-0.23634453781512577,43.0694,-94.2386
2015-04-10,"Walnut Grove Dairy, Iowa, United States",2.3489932885906,43.0983,-96.1131
2015-04-10,"Franklin County, Iowa, United States",0.2638522427440633,42.7333,-93.2669
2015-04-10,"Orange City, Iowa, United States",2.11267605633803,43.0072,-96.0583
2015-04-10,"Drake University, Iowa, United States",0.14130044086471197,41.6014,-93.6519
2015-04-10,"Dordt College, Iowa, United States",1.136363636363635,43.0822,-96.1684
2015-04-10,"Delaware County, Iowa, United States",-1.6262589626984327,42.4667,-91.3668
2015-04-10,"United Methodist, Iowa, United States",3.76301040832666,41.7555,-94.0322
2015-04-10,"Food Sciences Building, Iowa, United States",1.45379023883697,42.0269,-93.6433
2015-04-10,"Woodrow Wilson Elementary School, Iowa, United States",0.20283975659229145,41.6922,-93.0621
2015-04-10,"Hilton Coliseum, Iowa, United States",0.632911392405065,42.0211,-93.6349
2015-04-10,"Woodbury County, Iowa, United States",0.025974025974025716,42.3833,-96.0336
2015-04-10,"Lutheran Church, Iowa, United States",0.71301247771836,42.735,-93.7341
2015-04-10,"Hawarden, Iowa, United States",-2.1582733812949666,42.9958,-96.4853
2015-04-10,"Marshalltown, Iowa, United States",-1.6101694915254239,42.0494,-92.908
2015-04-10,"Cowles Library, Iowa, United States",0.22918258212375994,41.6011,-93.6541
2015-04-10,"Anamosa, Iowa, United States",-3.3464566929133754,42.1083,-91.2852
2015-04-10,"Power Plant, Iowa, United States",3.27056491575817,41.6572,-91.5388
2015-04-10,"Charles City, Iowa, United States",0.08333333333333333,43.0664,-92.6724
2015-04-10,"Hancock County, Iowa, United States",-1.0062893081761,43.0833,-93.7169
2015-04-10,"Story County, Iowa, United States",-0.7824726134585285,42.0333,-93.4669
2015-04-10,"Discovery Park, Iowa, United States",1.73611111111111,41.2656,-95.8525
2015-04-10,"Benton County, Iowa, United States",-6.12465044742729,42.0667,-92.0668
2015-04-10,"Episcopal Church, Iowa, United States",-0.15629127701167617,42.4622,-93.8319
2015-04-10,"Stephens Auditorium, Iowa, United States",1.08695652173913,42.0203,-93.6377
2015-04-10,"Mitchell County, Iowa, United States",0.25839793281654,43.35,-92.7835
2015-04-10,"Willowbrook, Iowa, United States",1.6897081413210466,41.8706,-92.1991
2015-04-10,"Pleasant Valley, Iowa, United States",0.03333888981497,41.5698,-90.4232
2015-04-10,"Clinton County, Iowa, United States",-8.33333333333333,41.8834,-90.5501
2015-04-10,"Spencer High School, Iowa, United States",-1.65441176470588,43.1408,-95.1336
2015-04-10,"Morningside College, Iowa, United States",0.2645502645502647,42.4747,-96.3595
2015-04-10,"Muscatine, Iowa, United States",0.3591447757446159,41.4245,-91.0432
2015-04-10,"Crossroads Park, Iowa, United States",0.38283828382838403,41.5883,-93.7738
2015-04-10,"City Of Grinnell, Iowa, United States",-0.587467362924285,41.7408,-92.723
2015-04-10,"Morningside, Iowa, United States",0.3114911028091054,42.4689,-96.3592
2015-04-10,"Emmetsburg, Iowa, United States",-3.96714040894878,43.1127,-94.683
2015-04-10,"Pekin, Iowa, United States",5.6,41.1628,-92.1596
2015-04-10,"Marion County, Iowa, United States",-7.69230769230765,41.3333,-93.1002
2015-04-10,"Linn County, Iowa, United States",0.3095975232198125,42.0667,-91.6002
2015-04-10,"Genesis Medical Center, Iowa, United States",0.78125,41.5438,-90.5934
2015-04-10,"Plymouth County, Iowa, United States",1.8808777429467098,42.7333,-96.2336
2015-04-10,"Sioux Center, Iowa, United States",0.29514835482195617,43.0797,-96.1756
2015-04-10,"Scott County Park, Iowa, United States",-2.0,41.7114,-90.5299
2015-04-10,"Cedar Rapids Public Library, Iowa, United States",0.1168224299065425,41.975,-91.6652
2015-04-10,"Williamsburg, Iowa, United States",-5.64263322884013,41.6611,-92.0091
2015-04-10,"Cedar Falls, Iowa, United States",-0.11463654846976787,42.5278,-92.4455
2015-04-10,"Museum Of Natural History, Iowa, United States",2.88461538461538,41.662,-91.5341
2015-04-10,"Polk County, Iowa, United States",-0.25606058710372226,41.6833,-93.5835
2015-04-10,"Luverne, Iowa, United States",1.06951871657754,42.9083,-94.0738
2015-04-10,"Brooklyn, Iowa, United States",0.35499459828298935,41.7336,-92.4455
2015-04-10,"Ottumwa, Iowa, United States",0.239234449760768,41.02,-92.4113
2015-04-10,"Coralville, Iowa, United States",-6.41509433962265,41.6764,-91.5804
2015-04-10,"City Of Sheldon, Iowa, United States",0.398936170212765,43.1799,-95.8444
2015-04-10,"Urbana, Iowa, United States",-0.13982503914449884,42.2242,-91.8743
2015-04-10,"Columbus Junction, Iowa, United States",0.7223881393136043,41.28,-91.3607
2015-04-10,"West Des Moines, Iowa, United States",-0.06837810077845569,41.5772,-93.7113
2015-04-10,"Madison County, Iowa, United States",-0.413703072325448,41.3333,-94.0169
2015-04-10,"East High School, Iowa, United States",-0.20942408376963204,41.5969,-93.5999
2015-04-10,"Coralville Police Department, Iowa, United States",-2.0600011175800836,41.6781,-91.5835
2015-04-10,"Ames Public Library, Iowa, United States",0.0,42.0267,-93.6127
2015-04-10,"Council Bluffs, Iowa, United States",-0.56818181818182,41.2619,-95.8608
2015-04-10,"Beaverdale, Iowa, United States",0.027100271002708887,40.8467,-91.2085
2015-04-10,"Atalissa, Iowa, United States",1.88150520416333,41.5711,-91.166
2015-04-10,"Clear Lake, Iowa, United States",0.2613234612591776,43.138,-93.3794
2015-04-10,"Evansdale, Iowa, United States",-9.15032679738562,42.4692,-92.281
2015-04-10,"Clinton County Sheriff Department, Iowa, United States",-2.710027100271,41.8506,-90.1885
2015-04-10,"Des Moines, Iowa, United States",-0.005819375232930918,41.6005,-93.6091
2015-04-10,"Osage Cemetery, Iowa, United States",1.434878587196465,43.2919,-92.8213
2015-04-10,"Shenandoah, Iowa, United States",-10.5271258176222,40.7656,-95.3722
2015-04-10,"Central College, Iowa, United States",-0.29585798816568054,41.4011,-92.9205
2015-04-09,"Evansdale, Iowa, United States",-0.97517730496454,42.4692,-92.281
2015-04-09,"Missouri Valley, Iowa, United States",-1.106639839034205,41.5564,-95.8878
2015-04-09,"Wilson Middle School, Iowa, United States",0.363967242948135,42.7511,-95.5508
2015-04-09,"Iowa Wesleyan College, Iowa, United States",0.314465408805032,40.9725,-91.5524
2015-04-09,"New Hampton, Iowa, United States",0.44642857142857,43.0591,-92.3177
2015-04-09,"Lee County, Iowa, United States",2.710027100271,40.65,-91.4835
2015-04-09,"Coralville, Iowa, United States",0.3148924180020744,41.6764,-91.5804
2015-04-09,"Monticello, Iowa, United States",-0.17361111111111,42.2383,-91.1871
2015-04-09,"Mason City Fire Department, Iowa, United States",-0.7408333666142312,43.1477,-93.2069
2015-04-09,"Shell Rock, Iowa, United States",-0.86956521739131,42.7103,-92.583
2015-04-09,"West Des Moines, Iowa, United States",-0.05579163443347441,41.5772,-93.7113
2015-04-09,"Desmoines, Iowa, United States",0.14598540145985398,41.6005,-93.6091
2015-04-09,"Pilot Mound, Iowa, United States",-1.918465227817745,42.1644,-94.0166
2015-04-09,"Council Bluffs, Iowa, United States",-0.3007116616688042,41.2619,-95.8608
2015-04-09,"Grandview, Iowa, United States",0.0,41.2759,-91.1885
2015-04-09,"Recreation Building, Iowa, United States",0.5498533724340174,41.6595,-91.5535
2015-04-09,"Mason City, Iowa, United States",-0.15981950243066573,43.1536,-93.201
2015-04-09,"Marysville, Iowa, United States",0.663129973474805,41.1806,-92.9491
2015-04-09,"Forest City, Iowa, United States",-0.4951135088121391,43.2625,-93.6372
2015-04-09,"Walnut Creek Community Church, Iowa, United States",-3.21428571428571,41.6653,-93.7558
2015-04-09,"Shueyville, Iowa, United States",1.11016225448335,41.8506,-91.6466
2015-04-09,"North Cedar, Iowa, United States",0.46168051708217994,42.5547,-92.4557
2015-04-09,"Eagle Grove, Iowa, United States",1.98135198135198,42.6641,-93.9044
2015-04-09,"Jones County, Iowa, United States",-1.3020833333333333,42.1167,-91.1335
2015-04-09,"Camanche, Iowa, United States",-0.47475904912935607,41.7881,-90.2562
2015-04-09,"Rock Valley Police Department, Iowa, United States",-10.5691056910569,43.2036,-96.2945
2015-04-09,"Lyon County, Iowa, United States",-2.2406470154378257,43.3833,-96.2509
2015-04-09,"Concord Care Center, Iowa, United States",-5.75757575757576,43.0911,-93.6085
2015-04-09,"Physical Plant, Iowa, United States",0.025018764073054284,41.3639,-93.5622
2015-04-09,"Rockwell Fire Department, Iowa, United States",-1.69491525423729,42.9858,-93.1884
2015-04-09,"Presbyterian Church, Iowa, United States",-0.07338551859099875,43.0703,-95.9072
2015-04-09,"Okoboji, Iowa, United States",-3.38983050847458,43.3864,-95.1483
2015-04-09,"Hiawatha, Iowa, United States",-0.08123223322164673,42.0358,-91.6821
2015-04-09,"Boone County Historical Center, Iowa, United States",0.381679389312975,42.0619,-93.8794
2015-04-09,"Greene County, Iowa, United States",-1.7629774730656247,42.0333,-94.4002
2015-04-09,"Ottumwa Regional Health Center, Iowa, United States",-6.58826247805108,41.0291,-92.39
2015-04-09,"Gilbertville, Iowa, United States",-0.9751773049645399,42.4161,-92.2149
2015-04-09,"Cedar Falls, Iowa, United States",0.3861402592984562,42.5278,-92.4455
2015-04-09,"Parkview, Iowa, United States",0.6217616580310881,41.6942,-90.5457
2015-04-09,"Spencer Fire Department, Iowa, United States",-0.6896551724137933,43.1381,-95.1441
2015-04-09,"Rockwell City, Iowa, United States",0.29188273413963317,42.3953,-94.6339
2015-04-09,"Le Mars, Iowa, United States",-1.3697226945524,42.7942,-96.1656
2015-04-09,"Algona Police Department, Iowa, United States",-2.06896551724138,43.0694,-94.2386
2015-04-09,"Johnson County, Iowa, United States",0.15859460778333573,41.6667,-91.5335
2015-04-09,"Hancock County, Iowa, United States",-0.20248715694986133,43.0833,-93.7169
2015-04-09,"Centerville, Iowa, United States",-2.23412245233907,40.7342,-92.8741
2015-04-09,"Scott County, Iowa, United States",-3.924286593226305,41.6334,-90.6335
2015-04-09,"Hawkeye Community College, Iowa, United States",0.70754716981132,42.4305,-92.3307
2015-04-09,"Sioux City, Iowa, United States",-0.5530171413403678,42.5,-96.4003
2015-04-09,"Wapello, Iowa, United States",0.08756567425569,41.1814,-91.1854
2015-04-09,"Estherville, Iowa, United States",-0.22550225502255064,43.4016,-94.8328
2015-04-09,"Clear Lake, Iowa, United States",-0.05634437683119223,43.138,-93.3794
2015-04-09,"Quasqueton, Iowa, United States",4.61165048543689,42.3944,-91.761
2015-04-09,"Emmet County, Iowa, United States",-4.05904059040591,43.3744,-94.6669
2015-04-09,"Urbandale, Iowa, United States",0.011346681078110826,41.6267,-93.7122
2015-04-09,"Chickasaw County, Iowa, United States",-0.21645021645021667,43.0666,-92.3168
2015-04-09,"Dallas County, Iowa, United States",0.04563606224998622,41.6833,-94.0502
2015-04-09,"Des Moines Police Department, Iowa, United States",-0.5993245078140933,41.5861,-93.6155
2015-04-09,"Urbana, Iowa, United States",4.05447272263379,42.2242,-91.8743
2015-04-09,"Des Moines, Iowa, United States",-0.006496231260500044,41.6005,-93.6091
2015-04-09,"Mchose Park, Iowa, United States",0.76335877862595,42.0428,-93.8844
2015-04-09,"Interstate, Iowa, United States",-0.884523302491777,41.6961,-92.7269
2015-04-09,"Marshalltown Police Department, Iowa, United States",-0.64516129032258,42.0503,-92.913
2015-04-09,"Linn County, Iowa, United States",0.07157362245027593,42.0667,-91.6002
2015-04-09,"Brooklyn, Iowa, United States",0.91569308493843,41.7336,-92.4455
2015-04-09,"Earlville, Iowa, United States",1.5795206971677567,42.4817,-91.2724
2015-04-09,"Cedar Valley, Iowa, United States",4.53257790368272,41.7264,-91.2466
2015-04-09,"Indianola, Iowa, United States",0.1992134477409346,41.358,-93.5574
2015-04-09,"Spencer Police Department, Iowa, United States",-2.0062695924764884,43.1419,-95.1464
2015-04-09,"Lake Mills, Iowa, United States",0.429184549356225,43.4194,-93.5333
2015-04-09,"Columbus Junction, Iowa, United States",0.26595744680851,41.28,-91.3607
2015-04-09,"Burlington, Iowa, United States",-2.11132437619961,40.8075,-91.1129
2015-04-09,"Clinton Public Library, Iowa, United States",0.38601271571298834,41.8381,-90.191
2015-04-09,"Polk County, Iowa, United States",-0.8620601099837325,41.6833,-93.5835
2015-04-09,"Sioux County, Iowa, United States",-10.5691056910569,42.7333,-96.2336
2015-04-09,"Iowa City, Iowa, United States",2.85714285714286,41.6611,-91.5302
2015-04-09,"Northview Middle School, Iowa, United States",2.94784580498866,41.7389,-93.6127
2015-04-09,"Cedar Rapids, Iowa, United States",-0.02059960555822906,42.0083,-91.6441
2015-04-09,"Ottumwa, Iowa, United States",-0.0065453467397437294,41.02,-92.4113
2015-04-09,"Carroll County, Iowa, United States",-3.5259549461312494,42.0333,-94.8836
2015-04-09,"Salisbury House, Iowa, United States",0.33700980392156876,41.5792,-93.6716
2015-04-09,"Muscatine, Iowa, United States",0.030172416552860053,41.4245,-91.0432
2015-04-09,"College Of Veterinary Medicine, Iowa, United States",-4.85436893203884,42.0072,-93.6324
2015-04-09,"Rock Creek, Iowa, United States",0.9826152683295533,43.235,-92.9188
2015-04-09,"Anamosa, Iowa, United States",-7.8125,42.1083,-91.2852
2015-04-09,"Drake University, Iowa, United States",0.4047025688836073,41.6014,-93.6519
2015-04-09,"Woodbury County Jail, Iowa, United States",-2.037545196974975,42.4972,-96.406
2015-04-09,"Woodbury County, Iowa, United States",-0.931839377979929,42.3833,-96.0336
2015-04-09,"Algona, Iowa, United States",-1.51515151515152,43.07,-94.233
2015-04-09,"Buchanan County, Iowa, United States",1.5372168284789633,42.4667,-91.8502
2015-04-08,"Simpson College, Iowa, United States",0.1486841004916335,41.365,-93.5635
2015-04-08,"Madison County, Iowa, United States",4.53400503778338,41.3333,-94.0169
2015-04-08,"Rockwell City, Iowa, United States",0.3205476829191294,42.3953,-94.6339
2015-04-08,"Marion County, Iowa, United States",0.0,41.3333,-93.1002
2015-04-08,"Lutheran Church, Iowa, United States",0.71301247771836,42.735,-93.7341
2015-04-08,"Mechanicsville, Iowa, United States",-0.5400267191382107,41.9045,-91.2546
2015-04-08,"Oakdale, Iowa, United States",-0.22346368715083803,41.7064,-91.603
2015-04-08,"New Albin, Iowa, United States",-0.31028368794326,43.4966,-91.2896
2015-04-08,"Indian Hills Community College, Iowa, United States",3.92156862745098,41.0447,-92.3946
2015-04-08,"El Dorado, Iowa, United States",4.53400503778338,43.0505,-91.8354
2015-04-08,"Marshall County, Iowa, United States",-2.549019607843135,42.0333,-93.0008
2015-04-08,"Cedar Rapids, Iowa, United States",0.1115195906840513,42.0083,-91.6441
2015-04-08,"West Union, Iowa, United States",-0.79646017699115,42.9628,-91.8082
2015-04-08,"Des Moines Police Department, Iowa, United States",-0.32737737593206107,41.5861,-93.6155
2015-04-08,"Scott County, Iowa, United States",0.20420137861039508,41.6334,-90.6335
2015-04-08,"Des Moines, Iowa, United States",-0.010239413168437812,41.6005,-93.6091
2015-04-08,"Fort Madison, Iowa, United States",0.5665581178972551,40.6298,-91.3151
2015-04-08,"Lake Mills, Iowa, United States",0.40983606557377,43.4194,-93.5333
2015-04-08,"Luverne, Iowa, United States",1.06951871657754,42.9083,-94.0738
2015-04-08,"Cedar Valley, Iowa, United States",-2.3109243697479003,41.7264,-91.2466
2015-04-08,"Sheldon City Park, Iowa, United States",-4.145077720207256,43.1847,-95.8503
2015-04-08,"Concord Care Center, Iowa, United States",-0.4394588085774971,43.0911,-93.6085
2015-04-08,"Benton County, Iowa, United States",-2.209531822473535,42.0667,-92.0668
2015-04-08,"Mason City, Iowa, United States",-0.285963783736611,43.1536,-93.201
2015-04-08,"Keokuk, Iowa, United States",-1.35411589560477,40.3973,-91.3849
2015-04-08,"Adair County, Iowa, United States",-1.73611111111111,41.3333,-94.4669
2015-04-08,"Clinton County, Iowa, United States",-0.528169014084505,41.8834,-90.5501
2015-04-08,"Cedar Falls, Iowa, United States",0.03457400716515429,42.5278,-92.4455
2015-04-08,"Third Missionary Baptist Church, Iowa, United States",0.24687220425927708,41.5342,-90.576
2015-04-08,"First Mennonite Church, Iowa, United States",-0.1672240802675575,41.6534,-91.5446
2015-04-08,"Emmet County, Iowa, United States",-0.22158772120048045,43.3744,-94.6669
2015-04-08,"Black Hawk Lake, Iowa, United States",3.42857142857143,42.2983,-95.0255
2015-04-08,"Altoona, Iowa, United States",0.007834142047848788,41.6442,-93.4647
2015-04-08,"Park View, Iowa, United States",-3.0812324929972,41.6942,-90.5457
2015-04-08,"Physical Plant, Iowa, United States",-0.13184501964043277,41.3639,-93.5622
2015-04-08,"Dubuque County, Iowa, United States",0.082644628099175,42.4833,-90.8668
2015-04-08,"Hancock County, Iowa, United States",-0.18551364662555447,43.0833,-93.7169
2015-04-08,"Fort Dodge, Iowa, United States",-4.549779073985481,42.4975,-94.168
2015-04-08,"Veterans Park, Iowa, United States",0.521262002743484,43.0783,-94.2361
2015-04-08,"Jasper County, Iowa, United States",-0.8255933952528401,41.6833,-93.0502
2015-04-08,"Charles City, Iowa, United States",-0.025559359544916456,43.0664,-92.6724
2015-04-08,"Morningside College, Iowa, United States",0.968992248062015,42.4747,-96.3595
2015-04-08,"Johnson Creek, Iowa, United States",3.59116022099448,41.5236,-93.8397
2015-04-08,"Sergeant Bluff, Iowa, United States",-0.7009345794392525,42.4039,-96.3586
2015-04-08,"Bridgewater, Iowa, United States",-0.4,41.245,-94.6689
2015-04-08,"Urbandale, Iowa, United States",0.0,41.6267,-93.7122
2015-04-08,"Camp Crescent, Iowa, United States",1.714285714285715,42.3078,-95.0419
2015-04-08,"Polk County, Iowa, United States",-10.3225806451613,41.6833,-93.5835
2015-04-08,"United Church, Iowa, United States",0.6796116504854375,41.6339,-90.4329
2015-04-08,"Blackhawk County, Iowa, United States",-5.24412296564195,42.4667,-92.3168
2015-04-08,"Johnson County, Iowa, United States",0.40040541744631486,41.6667,-91.5335
2015-04-08,"Mount Pleasant, Iowa, United States",-0.42689434364994,40.9636,-91.5579
2015-04-08,"East High School, Iowa, United States",0.0,41.5969,-93.5999
2015-04-08,"Lee County, Iowa, United States",0.5665581178972551,40.65,-91.4835
2015-04-08,"Okoboji, Iowa, United States",0.9855460886309357,43.3864,-95.1483
2015-04-08,"Coralville, Iowa, United States",0.061308507611325,41.6764,-91.5804
2015-04-08,"Jones County, Iowa, United States",-2.2056056646092412,42.1167,-91.1335
2015-04-08,"Woodbury County, Iowa, United States",-1.1012275049618419,42.3833,-96.0336
2015-04-08,"Muscatine County, Iowa, United States",0.67829457364341,41.4667,-91.1335
2015-04-08,"Marshalltown, Iowa, United States",-0.720441946539157,42.0494,-92.908
2015-04-08,"Central Middle School, Iowa, United States",1.91637630662021,41.4292,-91.0482
2015-04-08,"New Hampton, Iowa, United States",-0.63291139240506,43.0591,-92.3177
2015-04-08,"Drake University, Iowa, United States",-0.24659728865598737,41.6014,-93.6519
2015-04-08,"Greene, Iowa, United States",0.600801068090785,42.8958,-92.8024
2015-04-08,"Clear Lake, Iowa, United States",0.3485526622066392,43.138,-93.3794
2015-04-08,"Franklin County, Iowa, United States",-0.6658595641646475,42.7333,-93.2669
2015-04-08,"Cerro Gordo County, Iowa, United States",-0.16142050040355,43.0833,-93.2669
2015-04-08,"Urbana, Iowa, United States",-4.02144772117962,42.2242,-91.8743
2015-04-08,"West Des Moines, Iowa, United States",-0.0159141508396348,41.5772,-93.7113
2015-04-08,"Grand Junction, Iowa, United States",-0.980392156862745,42.0316,-94.2408
2015-04-08,"Pleasant Valley, Iowa, United States",-0.602409638554215,41.5698,-90.4232
2015-04-08,"Dallas County, Iowa, United States",-0.54945054945055,41.6833,-94.0502
2015-04-08,"Lime Springs, Iowa, United States",0.130718954248365,43.4489,-92.2807
2015-04-08,"Estherville, Iowa, United States",-0.12115728919398523,43.4016,-94.8328
2015-04-08,"Wright County, Iowa, United States",-1.094890510948905,42.7333,-93.7169
2015-04-08,"Sioux City, Iowa, United States",-0.1886826671977029,42.5,-96.4003
2015-04-08,"Council Bluffs, Iowa, United States",-0.8178378813491107,41.2619,-95.8608
2015-04-08,"Warren County, Iowa, United States",0.23076923076923078,41.3333,-93.5502
2015-04-08,"North Liberty, Iowa, United States",-0.733608054647196,41.7492,-91.5979
2015-04-08,"Gilbertville, Iowa, United States",0.07680491551459333,42.4161,-92.2149
2015-04-08,"Lake View, Iowa, United States",-0.28985507246376796,42.3069,-95.0517
2015-04-08,"Linn County, Iowa, United States",0.21881838074398247,42.0667,-91.6002
2015-04-08,"Zion Lutheran Church, Iowa, United States",0.248419150858175,42.7128,-95.0653
2015-04-08,"Boone County, Iowa, United States",-0.03748579167573684,42.0333,-93.9336
2015-04-08,"Sac County, Iowa, United States",0.10455050320917736,42.3833,-95.1169
2015-04-08,"Lucas Elementary School, Iowa, United States",0.53763440860215,41.0322,-93.4594
2015-04-08,"Forest City, Iowa, United States",-1.0757167107662298,43.2625,-93.6372
2015-04-08,"Cedar River, Iowa, United States",-1.8673817489838282,41.2831,-91.3468
2015-04-08,"Crawfordsville, Iowa, United States",0.9061488673139166,41.2146,-91.5373
2015-04-08,"Hiawatha, Iowa, United States",-1.41732283464567,42.0358,-91.6821
2015-04-08,"Musser Public Library, Iowa, United States",0.5494505494505499,41.4222,-91.0474
2015-04-08,"Indianola, Iowa, United States",0.2193394879320094,41.358,-93.5574
2015-04-08,"Allamakee County, Iowa, United States",0.66225165562914,43.2833,-91.3668
2015-04-08,"First Presbyterian Church, Iowa, United States",1.58478605388273,41.5364,-90.5701
2015-04-08,"Ottumwa, Iowa, United States",-0.15776656388085927,41.02,-92.4113
2015-04-08,"Mercy Medical Center, Iowa, United States",-6.87293339631554,41.5988,-93.6233
2015-04-08,"Muscatine, Iowa, United States",0.32733705990280304,41.4245,-91.0432
2015-04-08,"Evansdale, Iowa, United States",0.20434806982440337,42.4692,-92.281
2015-04-08,"Spirit Lake, Iowa, United States",1.8908698001080466,43.4222,-95.1022
2015-04-08,"Hawkeye Community College, Iowa, United States",0.806451612903225,42.4305,-92.3307
2015-04-08,"Missouri Valley, Iowa, United States",-0.27304499781564073,41.5564,-95.8878
2015-04-08,"Dry Run Creek, Iowa, United States",-2.7027027027027,43.1869,-96.3625
2015-04-07,"Greene County, Iowa, United States",0.543478260869565,42.0333,-94.4002
2015-04-07,"Woodbury County, Iowa, United States",-0.12850100409022389,42.3833,-96.0336
2015-04-07,"Sioux City, Iowa, United States",-0.05931840122987982,42.5,-96.4003
2015-04-07,"Crawfordsville, Iowa, United States",2.13235294117647,41.2146,-91.5373
2015-04-07,"Warren County, Iowa, United States",0.2851711026615975,41.3333,-93.5502
2015-04-07,"Clinton County, Iowa, United States",-2.34447004608295,41.8834,-90.5501
2015-04-07,"Glenwood, Iowa, United States",-2.9976717112922,41.0469,-95.7425
2015-04-07,"Pleasant Hill, Iowa, United States",0.07598784194528875,41.5839,-93.5199
2015-04-07,"Buena Vista County, Iowa, United States",1.785714285714285,42.7333,-95.1503
2015-04-07,"Clarke County, Iowa, United States",0.0,41.0333,-93.7836
2015-04-07,"Mount Pleasant, Iowa, United States",0.2406768763151738,40.9636,-91.5579
2015-04-07,"Postville, Iowa, United States",-0.3229358134534709,43.0847,-91.5682
2015-04-07,"Brooklyn, Iowa, United States",-0.15823693050671167,41.7336,-92.4455
2015-04-07,"Lee County, Iowa, United States",-1.820327644087401,40.65,-91.4835
2015-04-07,"Webster City, Iowa, United States",0.847457627118645,42.4694,-93.8161
2015-04-07,"Coralville, Iowa, United States",0.08598638819853605,41.6764,-91.5804
2015-04-07,"Clarinda Mental Health Institute, Iowa, United States",0.53191489361702,40.7584,-95.0359
2015-04-07,"Drake University, Iowa, United States",-0.8222733118713579,41.6014,-93.6519
2015-04-07,"Fort Madison, Iowa, United States",-3.6254158167884505,40.6298,-91.3151
2015-04-07,"Waterloo Police Department, Iowa, United States",-1.276782774850877,42.4992,-92.3318
2015-04-07,"Mercy Hospital, Iowa, United States",-2.4530216518740464,41.6641,-91.5285
2015-04-07,"Keokuk, Iowa, United States",-0.804838788351788,40.3973,-91.3849
2015-04-07,"Jones County, Iowa, United States",-1.2778247584255096,42.1167,-91.1335
2015-04-07,"First Baptist Church, Iowa, United States",0.8130081300813,43.375,-95.9778
2015-04-07,"Essex, Iowa, United States",-0.22792022792022668,40.8336,-95.3083
2015-04-07,"Monona, Iowa, United States",2.31749710312862,43.0517,-91.3893
2015-04-07,"Des Moines, Iowa, United States",-0.03544682033117225,41.6005,-93.6091
2015-04-07,"Des Moines Police Department, Iowa, United States",-2.2642685597341607,41.5861,-93.6155
2015-04-07,"Mercy Medical Center, Iowa, United States",-1.7962128245158921,41.5988,-93.6233
2015-04-07,"Ellsworth Community College, Iowa, United States",1.0989010989011,42.5272,-93.2666
2015-04-07,"Scott County, Iowa, United States",0.13196613699126225,41.6334,-90.6335
2015-04-07,"What Cheer, Iowa, United States",5.05050505050505,41.4014,-92.3546
2015-04-07,"Memorial Union, Iowa, United States",3.8863976083707,42.0233,-93.6458
2015-04-07,"Ottumwa, Iowa, United States",-0.9279210645047533,41.02,-92.4113
2015-04-07,"Anderson Dance Pavilion, Iowa, United States",0.17921146953405,42.4886,-96.4086
2015-04-07,"Council Bluffs, Iowa, United States",-0.7305194805194805,41.2619,-95.8608
2015-04-07,"Mason City, Iowa, United States",-0.11760030216013649,43.1536,-93.201
2015-04-07,"Waukon, Iowa, United States",0.45372050816697007,43.2694,-91.4757
2015-04-07,"Lamoille, Iowa, United States",4.15400202634245,42.0305,-93.0385
2015-04-07,"City Of Ankeny, Iowa, United States",2.25988700564972,41.7234,-93.5987
2015-04-07,"Benton County, Iowa, United States",-1.9327731092437,42.0667,-92.0668
2015-04-07,"Winterset, Iowa, United States",-0.3786888196208739,41.3308,-94.0138
2015-04-07,"Boone County, Iowa, United States",-0.17182130584192334,42.0333,-93.9336
2015-04-07,"Pocahontas, Iowa, United States",0.8659638554216875,42.7355,-94.6691
2015-04-07,"Cedar River, Iowa, United States",-2.3170212261541603,41.2831,-91.3468
2015-04-07,"Williamsburg, Iowa, United States",-1.52671755725191,41.6611,-92.0091
2015-04-07,"Polk County, Iowa, United States",-0.6275129604175408,41.6833,-93.5835
2015-04-07,"Linn County, Iowa, United States",-0.483193277310925,42.0667,-91.6002
2015-04-07,"Clear Lake, Iowa, United States",0.3314438671075424,43.138,-93.3794
2015-04-07,"Linn Grove, Iowa, United States",0.4437869822485205,42.8916,-95.2467
2015-04-07,"Bremer County, Iowa, United States",0.3075551531208235,42.7666,-92.3168
2015-04-07,"Mechanicsville, Iowa, United States",-0.6561503741965828,41.9045,-91.2546
2015-04-07,"Bloomington, Iowa, United States",0.23310023310022998,42.0561,-93.5874
2015-04-07,"Buchanan County, Iowa, United States",-2.727272727272725,42.4667,-91.8502
2015-04-07,"Johnson County Jail, Iowa, United States",-4.18250950570342,41.655,-91.5366
2015-04-07,"New Hampton, Iowa, United States",-3.08641975308642,43.0591,-92.3177
2015-04-07,"Estherville, Iowa, United States",-2.992957746478875,43.4016,-94.8328
2015-04-07,"Muscatine, Iowa, United States",-0.10330551618117118,41.4245,-91.0432
2015-04-07,"Cedar Valley, Iowa, United States",0.030193236714975823,41.7264,-91.2466
2015-04-07,"Cornell College, Iowa, United States",0.83989501312336,41.9258,-91.4254
2015-04-07,"Gilbertville, Iowa, United States",-0.0871918841298367,42.4161,-92.2149
2015-04-07,"Trinity Heights, Iowa, United States",4.64396284829722,42.5272,-96.3756
2015-04-07,"Central Presbyterian Church, Iowa, United States",0.672645739910315,42.0205,-93.4538
2015-04-07,"Charles City, Iowa, United States",-0.011652504468623898,43.0664,-92.6724
2015-04-07,"Forest City, Iowa, United States",0.847457627118645,43.2625,-93.6372
2015-04-07,"North Liberty, Iowa, United States",-1.3941698352344736,41.7492,-91.5979
2015-04-07,"Concord Care Center, Iowa, United States",-1.1339858850232294,43.0911,-93.6085
2015-04-07,"Gateway Park, Iowa, United States",0.0,43.0416,-91.3904
2015-04-07,"Hiawatha, Iowa, United States",-4.28238295046337,42.0358,-91.6821
2015-04-07,"Cedar Rapids, Iowa, United States",-0.21342462768414114,42.0083,-91.6441
2015-04-07,"Floyd County, Iowa, United States",-8.05369127516779,43.0666,-92.7835
2015-04-07,"Marshalltown, Iowa, United States",2.077001013171225,42.0494,-92.908
2015-04-07,"Franklin County, Iowa, United States",-0.6658595641646475,42.7333,-93.2669
2015-04-07,"Indianola, Iowa, United States",0.04296008823009739,41.358,-93.5574
2015-04-07,"Gowrie, Iowa, United States",-0.70921985815603,42.2805,-94.2908
2015-04-07,"West Bend, Iowa, United States",0.6927710843373501,42.9569,-94.4411
2015-04-07,"Plymouth County, Iowa, United States",-0.24960888748264198,42.7333,-96.2336
2015-04-07,"Fort Madison Community Hospital, Iowa, United States",-10.9668523005137,40.6257,-91.3849
2015-04-07,"Cedar County, Iowa, United States",-2.4390243902439033,41.7667,-91.1335
2015-04-07,"Evansdale, Iowa, United States",-0.1930823523358807,42.4692,-92.281
2015-04-07,"Adams County, Iowa, United States",0.51813471502591,41.0333,-94.7002
2015-04-07,"Cerro Gordo County, Iowa, United States",-2.565411554620377,43.0833,-93.2669
2015-04-07,"Bowman Woods Elementary School, Iowa, United States",0.22189349112426024,42.0444,-91.6285
2015-04-07,"Wright County, Iowa, United States",-0.5519505320130892,42.7333,-93.7169
2015-04-07,"West Branch, Iowa, United States",-0.0569803383644441,41.6714,-91.3465
2015-04-07,"Shell Rock, Iowa, United States",-1.070831572433363,42.7103,-92.583
2015-04-07,"Cedar Falls, Iowa, United States",-0.3456182449757785,42.5278,-92.4455
2015-04-07,"Hancock County, Iowa, United States",-0.18749404651049936,43.0833,-93.7169
2015-04-07,"Physical Plant, Iowa, United States",0.2717391304347825,41.3639,-93.5622
2015-04-07,"Johnson County, Iowa, United States",-0.184757891920814,41.6667,-91.5335
2015-04-07,"Second Baptist Church, Iowa, United States",0.0683994528043775,40.73,-92.868
2015-04-07,"Chickasaw County, Iowa, United States",-3.08641975308642,43.0666,-92.3168
2015-04-07,"Emmetsburg, Iowa, United States",1.731927710843375,43.1127,-94.683
2015-04-07,"Allamakee County, Iowa, United States",0.396687408672538,43.2833,-91.3668
2015-04-06,"Council Bluffs, Iowa, United States",-0.839833707472261,41.2619,-95.8608
2015-04-06,"Dubuque County, Iowa, United States",-5.282679802561165,42.4833,-90.8668
2015-04-06,"Hiawatha Police Department, Iowa, United States",-9.92208570572371,42.0358,-91.6821
2015-04-06,"Coralville, Iowa, United States",0.04511469889468568,41.6764,-91.5804
2015-04-06,"Ottumwa, Iowa, United States",0.609756097560975,41.02,-92.4113
2015-04-06,"West Des Moines, Iowa, United States",1.0577476958525351,41.5772,-93.7113
2015-04-06,"Assumption Catholic Church, Iowa, United States",0.69151627593186,41.9667,-90.469
2015-04-06,"Riverdale School, Iowa, United States",-1.263157894736845,41.0564,-94.1097
2015-04-06,"Charles City, Iowa, United States",0.0,43.0664,-92.6724
2015-04-06,"Centerville, Iowa, United States",-1.47058823529412,40.7342,-92.8741
2015-04-06,"Story City, Iowa, United States",0.0536281955611471,42.1872,-93.5958
2015-04-06,"Clinton County, Iowa, United States",-1.7601079343430255,41.8834,-90.5501
2015-04-06,"Clear Lake, Iowa, United States",-0.19271980659136437,43.138,-93.3794
2015-04-06,"Ocheyedan, Iowa, United States",-1.4891179839633466,43.4161,-95.5347
2015-04-06,"United Methodist, Iowa, United States",1.785714285714285,41.7555,-94.0322
2015-04-06,"First Baptist Church, Iowa, United States",0.31546055250378,43.375,-95.9778
2015-04-06,"Scott County, Iowa, United States",0.4707668944571,41.6334,-90.6335
2015-04-06,"Johnson County, Iowa, United States",-0.43257088313627506,41.6667,-91.5335
2015-04-06,"Bloomington, Iowa, United States",0.81799591002045,42.0561,-93.5874
2015-04-06,"Wayne County, Iowa, United States",-0.36764705882353,40.7506,-93.3002
2015-04-06,"Clinton Police Department, Iowa, United States",0.43516100957354004,41.8398,-90.1871
2015-04-06,"Jubilee Family Church, Iowa, United States",1.45985401459854,41.2922,-92.6499
2015-04-06,"Fort Madison Community Hospital, Iowa, United States",-7.08333333333335,40.6257,-91.3849
2015-04-06,"Burlington, Iowa, United States",-0.7280785058562835,40.8075,-91.1129
2015-04-06,"Polk County, Iowa, United States",0.11537524087799729,41.6833,-93.5835
2015-04-06,"Louisa County, Iowa, United States",0.6648936170212801,41.2334,-91.2668
2015-04-06,"Iowa Wesleyan College, Iowa, United States",3.57142857142857,40.9725,-91.5524
2015-04-06,"Camp Dodge, Iowa, United States",-1.21542330259849,41.6997,-93.7074
2015-04-06,"Sioux Center, Iowa, United States",-2.014652014652015,43.0797,-96.1756
2015-04-06,"Keosauqua, Iowa, United States",-0.156576200417535,40.7303,-91.9624
2015-04-06,"Henry County, Iowa, United States",-3.71819960861057,40.9834,-91.5502
2015-04-06,"Des Moines Police Department, Iowa, United States",-1.5625,41.5861,-93.6155
2015-04-06,"Algona, Iowa, United States",2.35418255333487,43.07,-94.233
2015-04-06,"Orange City, Iowa, United States",1.76211453744494,43.0072,-96.0583
2015-04-06,"Estherville, Iowa, United States",0.0,43.4016,-94.8328
2015-04-06,"Altoona, Iowa, United States",-0.3220611916264067,41.6442,-93.4647
2015-04-06,"Davis County, Iowa, United States",-1.04712041884816,40.7506,-92.4169
2015-04-06,"Cedar Rapids, Iowa, United States",-0.04290464064463816,42.0083,-91.6441
2015-04-06,"Cerro Gordo County, Iowa, United States",-2.700451490023171,43.0833,-93.2669
2015-04-06,"Stuart Hall, Iowa, United States",-1.49344711978056,41.2733,-95.8008
2015-04-06,"Marshalltown, Iowa, United States",0.63092110500756,42.0494,-92.908
2015-04-06,"Clinton County Sheriff Department, Iowa, United States",-0.728831556592865,41.8506,-90.1885
2015-04-06,"South East Junior High School, Iowa, United States",0.0,41.6456,-91.4996
2015-04-06,"Floyd River, Iowa, United States",1.8487394957983203,42.4831,-96.3917
2015-04-06,"Boone County, Iowa, United States",0.491803278688525,42.0333,-93.9336
2015-04-06,"Rice Lake, Iowa, United States",-2.946378537405435,43.3896,-93.4975
2015-04-06,"Cresco, Iowa, United States",-5.59006211180125,43.3814,-92.1141
2015-04-06,"Hawkeye Community College, Iowa, United States",0.65005417118094,42.4305,-92.3307
2015-04-06,"Hospers, Iowa, United States",-4.02930402930403,43.0719,-95.9045
2015-04-06,"Wright County, Iowa, United States",-1.094890510948905,42.7333,-93.7169
2015-04-06,"Lincoln Elementary School, Iowa, United States",-1.4468558708959396,42.1661,-92.0221
2015-04-06,"Waterloo Police Department, Iowa, United States",-0.5102040816326525,42.4992,-92.3318
2015-04-06,"Mount Pleasant, Iowa, United States",0.10311759195840067,40.9636,-91.5579
2015-04-06,"Bremer County, Iowa, United States",0.39432176656151,42.7666,-92.3168
2015-04-06,"Lyon County, Iowa, United States",-5.345911949685525,43.3833,-96.2509
2015-04-06,"Hope House, Iowa, United States",-0.8508086622807013,41.6984,-91.6048
2015-04-06,"Franklin County, Iowa, United States",-0.6658595641646474,42.7333,-93.2669
2015-04-06,"Central Presbyterian Church, Iowa, United States",0.07623517538609609,42.0205,-93.4538
2015-04-06,"Moville, Iowa, United States",0.9090909090908991,42.4889,-96.0725
2015-04-06,"Grinnell College, Iowa, United States",1.208459214501515,41.7486,-92.7202
2015-04-06,"Muscatine, Iowa, United States",0.028337984067183172,41.4245,-91.0432
2015-04-06,"Lucas Elementary School, Iowa, United States",0.604229607250755,41.0322,-93.4594
2015-04-06,"Cedar Falls, Iowa, United States",-0.07559969505248822,42.5278,-92.4455
2015-04-06,"Grandview, Iowa, United States",1.32978723404256,41.2759,-91.1885
2015-04-06,"Simpson College, Iowa, United States",0.0,41.365,-93.5635
2015-04-06,"Sioux County, Iowa, United States",-2.249265885629515,42.7333,-96.2336
2015-04-06,"Wapello, Iowa, United States",0.6122511594259067,41.1814,-91.1854
2015-04-06,"Des Moines, Iowa, United States",0.015044751981774306,41.6005,-93.6091
2015-04-06,"Fort Dodge, Iowa, United States",2.88888888888889,42.4975,-94.168
2015-04-06,"Le Mars, Iowa, United States",-1.2873885696185348,42.7942,-96.1656
2015-04-06,"Atalissa, Iowa, United States",0.267379679144385,41.5711,-91.166
2015-04-06,"Cedar Valley, Iowa, United States",0.1711615266581288,41.7264,-91.2466
2015-04-06,"Mercy Medical Center, Iowa, United States",-1.5064005073908342,41.5988,-93.6233
2015-04-06,"Floyd County, Iowa, United States",-3.51758793969849,43.0666,-92.7835
2015-04-06,"Mason City, Iowa, United States",-2.115789859216128E-4,43.1536,-93.201
2015-04-06,"Paullina, Iowa, United States",0.54719562243502,42.9791,-95.6881
2015-04-06,"Sioux City, Iowa, United States",-0.4936440461627916,42.5,-96.4003
2015-04-06,"Grand View, Iowa, United States",-0.8005123278898499,41.2759,-91.1885
2015-04-05,"Raccoon River, Iowa, United States",-2.01612903225806,41.5794,-93.6122
2015-04-05,"Central Presbyterian Church, Iowa, United States",0.19272700301868903,42.0205,-93.4538
2015-04-05,"Cedar Rapids, Iowa, United States",-0.07074042540098159,42.0083,-91.6441
2015-04-05,"Clinton County Sheriff Department, Iowa, United States",-1.31061598951507,41.8506,-90.1885
2015-04-05,"Marshall County, Iowa, United States",-1.517150395778365,42.0333,-93.0008
2015-04-05,"Clear Lake, Iowa, United States",0.542549146273581,43.138,-93.3794
2015-04-05,"United Methodist, Iowa, United States",0.42223959238028935,41.7555,-94.0322
2015-04-05,"Coralville, Iowa, United States",0.06370675824852153,41.6764,-91.5804
2015-04-05,"North Liberty, Iowa, United States",1.85856754306437,41.7492,-91.5979
2015-04-05,"Greene, Iowa, United States",0.8230452674897134,42.8958,-92.8024
2015-04-05,"Mercy Hospital, Iowa, United States",0.56022408963585,41.6641,-91.5285
2015-04-05,"Mitchellville, Iowa, United States",-0.27046783625731,41.6686,-93.3577
2015-04-05,"Clarke College, Iowa, United States",0.6648936170212775,42.5094,-90.6907
2015-04-05,"Wright County, Iowa, United States",-1.094890510948905,42.7333,-93.7169
2015-04-05,"Waterloo Police Department, Iowa, United States",-5.78947368421053,42.4992,-92.3318
2015-04-05,"Mason City, Iowa, United States",-1.7884634578421894,43.1536,-93.201
2015-04-05,"Marshalltown, Iowa, United States",0.423728813559325,42.0494,-92.908
2015-04-05,"Way Of The Cross, Iowa, United States",0.09132420091324,42.3639,-90.5357
2015-04-05,"Story City, Iowa, United States",0.06537026231023577,42.1872,-93.5958
2015-04-05,"Eddyville, Iowa, United States",0.231481481481482,41.1565,-92.6374
2015-04-05,"Polk County, Iowa, United States",0.60120240480962,41.6833,-93.5835
2015-04-05,"Woodbury County, Iowa, United States",0.30864197530864,42.3833,-96.0336
2015-04-05,"Big Creek, Iowa, United States",-1.06837606837607,42.3836,-95.8575
2015-04-05,"Cedar Falls, Iowa, United States",0.03419501873494211,42.5278,-92.4455
2015-04-05,"Correctionville, Iowa, United States",0.35143769968051003,42.475,-95.7856
2015-04-05,"Cedar Valley, Iowa, United States",1.474719101123595,41.7264,-91.2466
2015-04-05,"Green Castle, Iowa, United States",1.12630732099758,41.7461,-93.2616
2015-04-05,"Washington High School, Iowa, United States",2.77264325323475,41.9969,-91.631
2015-04-05,"Randalia, Iowa, United States",-2.13414634146342,42.863,-91.8857
2015-04-05,"Burlington, Iowa, United States",0.3125,40.8075,-91.1129
2015-04-05,"Grinnell College, Iowa, United States",2.45398773006135,41.7486,-92.7202
2015-04-05,"Scott Community College, Iowa, United States",3.07467057101025,41.5481,-90.4687
2015-04-05,"Iowa State Penitentiary, Iowa, United States",-2.95618238986087,40.6325,-91.2971
2015-04-05,"Des Moines, Iowa, United States",0.0061714017023021235,41.6005,-93.6091
2015-04-05,"Fort Dodge, Iowa, United States",2.91362713726541,42.4975,-94.168
2015-04-05,"Muscatine, Iowa, United States",0.017738912093612787,41.4245,-91.0432
2015-04-05,"Lost Nation, Iowa, United States",0.9292837715321849,41.9639,-90.8176
2015-04-05,"Sioux City, Iowa, United States",-0.25506429261307045,42.5,-96.4003
2015-04-05,"Northpark Mall, Iowa, United States",-0.68027210884354,41.5631,-90.5743
2015-04-05,"Point Of Grace Church, Iowa, United States",1.16374038856234,41.5911,-93.7152
2015-04-05,"Oskaloosa, Iowa, United States",0.26344676180022,41.2964,-92.6444
2015-04-05,"Franklin County, Iowa, United States",-0.6658595641646475,42.7333,-93.2669
2015-04-05,"Sioux County, Iowa, United States",-2.188552188552187,42.7333,-96.2336
2015-04-05,"Boone County, Iowa, United States",-0.3728070175438601,42.0333,-93.9336
2015-04-05,"Morningside College, Iowa, United States",-0.68181818181818,42.4747,-96.3595
2015-04-04,"Clear Lake, Iowa, United States",0.3166974988026369,43.138,-93.3794
2015-04-04,"Coralville, Iowa, United States",-0.89820359281437,41.6764,-91.5804
2015-04-04,"Hawarden, Iowa, United States",-2.0370370370370368,42.9958,-96.4853
2015-04-04,"Johnson County, Iowa, United States",-8.49056603773585,41.6667,-91.5335
2015-04-04,"Council Bluffs, Iowa, United States",0.064724919093852,41.2619,-95.8608
2015-04-04,"Cerro Gordo County, Iowa, United States",-2.005657076928809,43.0833,-93.2669
2015-04-04,"West Branch, Iowa, United States",-4.14258188824662,41.6714,-91.3465
2015-04-04,"Blank Park Zoo, Iowa, United States",0.37453183520599,41.5186,-93.6249
2015-04-04,"Cedar Falls, Iowa, United States",0.04787590565254845,42.5278,-92.4455
2015-04-04,"Janesville, Iowa, United States",-1.11297774044519,42.6461,-92.463
2015-04-04,"Methodist Church, Iowa, United States",-0.7419851602967933,42.9742,-96.3189
2015-04-04,"Sac City, Iowa, United States",-0.9485044364531077,42.4222,-94.9897
2015-04-04,"Orange City, Iowa, United States",-2.12765957446809,43.0072,-96.0583
2015-04-04,"Muscatine, Iowa, United States",-0.3266870776391474,41.4245,-91.0432
2015-04-04,"Charter Oak, Iowa, United States",2.88065843621399,42.0683,-95.5917
2015-04-04,"Linn County, Iowa, United States",0.18621973929236468,42.0667,-91.6002
2015-04-04,"Clear Lake City Park, Iowa, United States",2.4390243902439,43.1358,-93.3835
2015-04-04,"Mason City, Iowa, United States",-1.8699688859588324,43.1536,-93.201
2015-04-04,"Boone County, Iowa, United States",-0.9685230024213075,42.0333,-93.9336
2015-04-04,"Wright County, Iowa, United States",-1.094890510948905,42.7333,-93.7169
2015-04-04,"Butler County, Iowa, United States",-10.4761904761905,42.7333,-92.7835
2015-04-04,"Bloomington, Iowa, United States",-0.680272108843535,42.0561,-93.5874
2015-04-04,"Sioux City, Iowa, United States",0.07407600258802072,42.5,-96.4003
2015-04-04,"Grandview, Iowa, United States",-1.867816091954025,41.2759,-91.1885
2015-04-04,"Marshall County, Iowa, United States",-0.6226053639846749,42.0333,-93.0008
2015-04-04,"Fort Dodge, Iowa, United States",-0.808637118629253,42.4975,-94.168
2015-04-04,"Marshalltown, Iowa, United States",3.51966873706004,42.0494,-92.908
2015-04-04,"Oakdale, Iowa, United States",-14.860966885889,41.7064,-91.603
2015-04-04,"Irvington, Iowa, United States",2.4390243902439,43.0075,-94.1955
2015-04-04,"Wayne County, Iowa, United States",-3.052503052503053,40.7506,-93.3002
2015-04-04,"Cedar Valley, Iowa, United States",-0.3179936401271971,41.7264,-91.2466
2015-04-04,"Atalissa, Iowa, United States",0.0,41.5711,-91.166
2015-04-04,"Webster County, Iowa, United States",-3.8536522546138867,42.4333,-94.1669
2015-04-04,"Burlington, Iowa, United States",-3.07881773399014,40.8075,-91.1129
2015-04-04,"Algona, Iowa, United States",0.48780487804878003,43.07,-94.233
2015-04-04,"Missionary Alliance Church, Iowa, United States",-2.08816705336427,42.4786,-93.6438
2015-04-04,"Keosauqua, Iowa, United States",0.0,40.7303,-91.9624
2015-04-04,"Waterloo Police Department, Iowa, United States",-0.21529725056299676,42.4992,-92.3318
2015-04-04,"Scott County, Iowa, United States",-0.15710964756425558,41.6334,-90.6335
2015-04-04,"Rock Rapids, Iowa, United States",-8.8709677419355,43.4272,-96.1759
2015-04-04,"Carbondale, Iowa, United States",1.43061516452074,41.5822,-93.5033
2015-04-04,"Johnson County Jail, Iowa, United States",-8.49056603773585,41.655,-91.5366
2015-04-04,"Emmet County, Iowa, United States",-0.925925925925924,43.3744,-94.6669
2015-04-04,"Franklin County, Iowa, United States",-0.6658595641646475,42.7333,-93.2669
2015-04-04,"Le Mars, Iowa, United States",1.80722891566265,42.7942,-96.1656
2015-04-04,"Cedar Rapids, Iowa, United States",-2.775101113164104,42.0083,-91.6441
2015-04-04,"Drake University, Iowa, United States",-3.0535675318116438,41.6014,-93.6519
2015-04-04,"Ogden High School, Iowa, United States",1.8072289156626498,42.0328,-94.0363
2015-04-04,"Lakeview, Iowa, United States",2.4390243902439,42.3069,-95.0517
2015-04-04,"Des Moines, Iowa, United States",-0.09253159174123375,41.6005,-93.6091
2015-04-04,"Columbus Junction, Iowa, United States",-15.384615384615397,41.28,-91.3607
2015-04-04,"Fruitland, Iowa, United States",0.0,41.3561,-91.1293
2015-04-03,"Wright County, Iowa, United States",-1.094890510948905,42.7333,-93.7169
2015-04-03,"Coon Rapids, Iowa, United States",-4.79452054794521,41.8708,-94.6775
2015-04-03,"Hempstead High School, Iowa, United States",0.17772511848341274,42.5017,-90.7337
2015-04-03,"Clear Lake, Iowa, United States",-3.95480225988701,43.138,-93.3794
2015-04-03,"College Of Veterinary Medicine, Iowa, United States",5.0,42.0072,-93.6324
2015-04-03,"Sioux City, Iowa, United States",-0.37596483694697036,42.5,-96.4003
2015-04-03,"Oskaloosa, Iowa, United States",0.21293070073557832,41.2964,-92.6444
2015-04-03,"Benton County, Iowa, United States",-0.4594929534404952,42.0667,-92.0668
2015-04-03,"Storm Lake, Iowa, United States",-1.49019607843137,42.6411,-95.2097
2015-04-03,"Muscatine County, Iowa, United States",-2.3282507547425375,41.4667,-91.1335
2015-04-03,"Fruitland Baptist Church, Iowa, United States",0.412371134020618,41.3548,-91.1285
2015-04-03,"Council Bluffs, Iowa, United States",-0.48685715336966,41.2619,-95.8608
2015-04-03,"Cerro Gordo County, Iowa, United States",-0.09478028287453692,43.0833,-93.2669
2015-04-03,"Dubuque County, Iowa, United States",0.710900473933651,42.4833,-90.8668
2015-04-03,"New Hampton, Iowa, United States",-4.1036717062635,43.0591,-92.3177
2015-04-03,"Sioux Center, Iowa, United States",0.3155621989702733,43.0797,-96.1756
2015-04-03,"Charles City, Iowa, United States",-0.5366894321246511,43.0664,-92.6724
2015-04-03,"West Union, Iowa, United States",0.44543429844098004,42.9628,-91.8082
2015-04-03,"Blank Park Zoo, Iowa, United States",0.96153846153846,41.5186,-93.6249
2015-04-03,"Conesville, Iowa, United States",-0.49140049140049,41.382,-91.3499
2015-04-03,"Urbandale, Iowa, United States",-4.03022670025189,41.6267,-93.7122
2015-04-03,"Winterset, Iowa, United States",-1.23152709359605,41.3308,-94.0138
2015-04-03,"Lake Mills, Iowa, United States",-1.388888888888885,43.4194,-93.5333
2015-04-03,"Cedar Falls, Iowa, United States",-0.09384742040497443,42.5278,-92.4455
2015-04-03,"Scott County, Iowa, United States",-3.000174732382895,41.6334,-90.6335
2015-04-03,"University Of Iowa, Iowa, United States",-0.2793296089385475,41.6617,-91.5363
2015-04-03,"Woodbury County, Iowa, United States",-0.18964629447754594,42.3833,-96.0336
2015-04-03,"Jesup, Iowa, United States",-1.87012987012987,42.4755,-92.0638
2015-04-03,"Musser Public Library, Iowa, United States",0.974358974358976,41.4222,-91.0474
2015-04-03,"Muscatine, Iowa, United States",-0.0214051472994643,41.4245,-91.0432
2015-04-03,"Plymouth County, Iowa, United States",-3.30788804071247,42.7333,-96.2336
2015-04-03,"Marshalltown, Iowa, United States",-0.17486645240775,42.0494,-92.908
2015-04-03,"Waterloo Police Department, Iowa, United States",-1.4495121243482334,42.4992,-92.3318
2015-04-03,"Grand View, Iowa, United States",1.0321797207043133,41.2759,-91.1885
2015-04-03,"Buchanan County, Iowa, United States",-0.7021942307207744,42.4667,-91.8502
2015-04-03,"Franklin County, Iowa, United States",-0.6658595641646475,42.7333,-93.2669
2015-04-03,"Cedar Rapids, Iowa, United States",-0.013778988805561339,42.0083,-91.6441
2015-04-03,"Bertha Godfrey Elementary School, Iowa, United States",1.143583227445995,43.0694,-94.2172
2015-04-03,"Indianola, Iowa, United States",1.92307692307692,41.358,-93.5574
2015-04-03,"Drake University, Iowa, United States",-4.86987437115315,41.6014,-93.6519
2015-04-03,"Swaledale, Iowa, United States",0.05420054200542001,42.9786,-93.3169
2015-04-03,"Buena Vista County, Iowa, United States",0.017182130584191872,42.7333,-95.1503
2015-04-03,"Emmetsburg, Iowa, United States",0.85324232081911,43.1127,-94.683
2015-04-03,"Sac City, Iowa, United States",-1.132437764017603,42.4222,-94.9897
2015-04-03,"Pleasant Valley, Iowa, United States",2.38907849829351,41.5698,-90.4232
2015-04-03,"Vinton Police Department, Iowa, United States",0.282714054927305,42.168,-92.0246
2015-04-03,"Hiawatha, Iowa, United States",-1.4923604510388304,42.0358,-91.6821
2015-04-03,"Episcopal Church, Iowa, United States",0.029935638377488225,42.4622,-93.8319
2015-04-03,"Onawa, Iowa, United States",-1.167133520074695,42.0267,-96.0972
2015-04-03,"Delaware County, Iowa, United States",0.7058823529411759,42.4667,-91.3668
2015-04-03,"Coralville, Iowa, United States",-0.84541062801932,41.6764,-91.5804
2015-04-03,"Fort Dodge, Iowa, United States",0.14367993296917042,42.4975,-94.168
2015-04-03,"Carroll County, Iowa, United States",0.0,42.0333,-94.8836
2015-04-03,"Superior Fire Department, Iowa, United States",-0.42134831460673994,43.4316,-94.948
2015-04-03,"Pleasant Hill Cemetery, Iowa, United States",-0.8264462809917299,42.6,-91.499
2015-04-03,"Johnson County, Iowa, United States",3.4351145038168,41.6667,-91.5335
2015-04-03,"Walnut Creek, Iowa, United States",0.96153846153846,41.5028,-90.6246
2015-04-03,"Spirit Lake, Iowa, United States",-0.5617977528089867,43.4222,-95.1022
2015-04-03,"Ottumwa, Iowa, United States",0.6657970216653295,41.02,-92.4113
2015-04-03,"Hinkle Creek, Iowa, United States",-5.96797671033479,42.1728,-92.026
2015-04-03,"Mitchellville, Iowa, United States",-0.3267715470107895,41.6686,-93.3577
2015-04-03,"Estherville, Iowa, United States",-0.84269662921348,43.4016,-94.8328
2015-04-03,"Morningside, Iowa, United States",-0.015483839955332245,42.4689,-96.3592
2015-04-03,"Tama County, Iowa, United States",0.08517228029423134,42.0667,-92.5335
2015-04-03,"Physical Plant, Iowa, United States",-0.76335877862596,41.3639,-93.5622
2015-04-03,"Evergreen Cemetery, Iowa, United States",0.282714054927305,42.2505,-94.5333
2015-04-03,"West Des Moines, Iowa, United States",0.01203449496703044,41.5772,-93.7113
2015-04-03,"Linn County, Iowa, United States",1.80995475113123,42.0667,-91.6002
2015-04-03,"Fort Madison, Iowa, United States",-1.1772620248906833,40.6298,-91.3151
2015-04-03,"Kalona, Iowa, United States",0.0,41.4831,-91.706
2015-04-03,"Fejervary Park, Iowa, United States",1.75438596491228,41.532,-90.6057
2015-04-03,"Carbondale, Iowa, United States",1.38121546961326,41.5822,-93.5033
2015-04-03,"Davenport Police Department, Iowa, United States",-0.9803921568627466,41.5239,-90.5768
2015-04-03,"Morningside College, Iowa, United States",-0.75757575757576,42.4747,-96.3595
2015-04-03,"Terrace Hill, Iowa, United States",-0.19960079840319,41.5833,-93.6491
2015-04-03,"Mercy Medical Center, Iowa, United States",0.94668659691082,41.5988,-93.6233
2015-04-03,"Galesburg, Iowa, United States",-0.9201243098858287,41.5589,-92.9463
2015-04-03,"Le Mars, Iowa, United States",-2.52053406944759,42.7942,-96.1656
2015-04-03,"Iowa City, Iowa, United States",-0.2793296089385475,41.6611,-91.5302
2015-04-03,"Shell Rock, Iowa, United States",-0.503300726178602,42.7103,-92.583
2015-04-03,"Mason City, Iowa, United States",-0.13551896000514074,43.1536,-93.201
2015-04-03,"Kirkwood Community College, Iowa, United States",-1.73010380622837,41.9122,-91.6535
2015-04-03,"Bloomington, Iowa, United States",-3.082191780821915,42.0561,-93.5874
2015-04-03,"Des Moines, Iowa, United States",-0.06404303897572497,41.6005,-93.6091
2015-04-03,"Evansdale, Iowa, United States",0.19090041361756288,42.4692,-92.281
2015-04-03,"Algona, Iowa, United States",0.5717916137229975,43.07,-94.233
2015-04-03,"Chillicothe, Iowa, United States",-0.896860986547086,41.0856,-92.5294
2015-04-03,"United Methodist, Iowa, United States",-1.10913930789707,41.7555,-94.0322
2015-04-03,"Public Safety Building, Iowa, United States",-3.688524590163935,41.6572,-91.5382
2015-04-03,"Little Sioux, Iowa, United States",0.54240631163708,41.8094,-96.0211
2015-04-03,"Iowa State Penitentiary, Iowa, United States",-7.89473684210526,40.6325,-91.2971
2015-04-03,"Burlington, Iowa, United States",-3.116883116883117,40.8075,-91.1129
2015-04-03,"Marshall County, Iowa, United States",-4.31654676258993,42.0333,-93.0008
2015-04-02,"Mason City, Iowa, United States",-0.28735720718585606,43.1536,-93.201
2015-04-02,"Waukon, Iowa, United States",-6.34920634920635,43.2694,-91.4757
2015-04-02,"Aredale, Iowa, United States",-4.017839511842934,42.833,-93.0055
2015-04-02,"Plymouth County, Iowa, United States",-3.0303030303030303,42.7333,-96.2336
2015-04-02,"Marshalltown, Iowa, United States",-0.6785911905256095,42.0494,-92.908
2015-04-02,"Clay County Jail, Iowa, United States",-0.07207207207207,43.1416,-95.1464
2015-04-02,"Des Moines, Iowa, United States",-0.011326168384206041,41.6005,-93.6091
2015-04-02,"Grinnell College, Iowa, United States",0.0,41.7486,-92.7202
2015-04-02,"Blackhawk County, Iowa, United States",-0.99009900990099,42.4667,-92.3168
2015-04-02,"Broadlawns Medical Center, Iowa, United States",-2.82258064516129,41.6166,-93.642
2015-04-02,"Legion Park, Iowa, United States",-0.9712509712509716,41.5778,-93.7061
2015-04-02,"Wright County, Iowa, United States",-1.094890510948905,42.7333,-93.7169
2015-04-02,"Shell Rock, Iowa, United States",-1.0335917312661498,42.7103,-92.583
2015-04-02,"Amana, Iowa, United States",2.11864406779661,41.8,-91.8707
2015-04-02,"Woodbury County, Iowa, United States",0.12753434880732537,42.3833,-96.0336
2015-04-02,"Wapello, Iowa, United States",-0.8877701236172748,41.1814,-91.1854
2015-04-02,"Estherville, Iowa, United States",-3.35195530726257,43.4016,-94.8328
2015-04-02,"Deerfield, Iowa, United States",-0.367647058823529,43.1636,-92.4955
2015-04-02,"Webster County, Iowa, United States",-2.94985250737463,42.4333,-94.1669
2015-04-02,"Ottumwa, Iowa, United States",-0.4089243483458512,41.02,-92.4113
2015-04-02,"Springfield, Iowa, United States",-0.157232704402515,43.0705,-91.5524
2015-04-02,"Sac City, Iowa, United States",-1.7928645963403362,42.4222,-94.9897
2015-04-02,"Dubuque County, Iowa, United States",-0.16025641025641,42.4833,-90.8668
2015-04-02,"Clinton Police Department, Iowa, United States",-3.629032258064515,41.8398,-90.1871
2015-04-02,"Sergeant Bluff, Iowa, United States",-0.48342541436464004,42.4039,-96.3586
2015-04-02,"Marshall County, Iowa, United States",-5.321469519952879,42.0333,-93.0008
2015-04-02,"Missouri Valley, Iowa, United States",0.12436550286281503,41.5564,-95.8878
2015-04-02,"Maquoketa, Iowa, United States",-1.411764705882355,42.0689,-90.6657
2015-04-02,"Hiawatha, Iowa, United States",-0.1119160432351499,42.0358,-91.6821
2015-04-02,"Emmetsburg, Iowa, United States",0.85324232081911,43.1127,-94.683
2015-04-02,"Mount Pleasant, Iowa, United States",0.3033863973632278,40.9636,-91.5579
2015-04-02,"Freeport, Iowa, United States",-0.41771094402673287,43.3022,-91.7435
2015-04-02,"West Sioux High School, Iowa, United States",0.79113924050633,43.0008,-96.4731
2015-04-02,"New Boston, Iowa, United States",-1.388888888888885,40.5606,-91.5054
2015-04-02,"Louisa County, Iowa, United States",0.1390115617377302,41.2334,-91.2668
2015-04-02,"Muddy Creek, Iowa, United States",1.149442160892545,42.5069,-96.1795
2015-04-02,"Le Mars, Iowa, United States",0.48396854204476664,42.7942,-96.1656
2015-04-02,"Iowa City, Iowa, United States",0.9478672985782,41.6611,-91.5302
2015-04-02,"Exira, Iowa, United States",-1.041666666666665,41.5908,-94.8755
2015-04-02,"East Marshall High School, Iowa, United States",-3.374233128834355,42.0078,-92.7788
2015-04-02,"Hamilton County, Iowa, United States",0.6097560975609734,42.3833,-93.7169
2015-04-02,"Johnson County, Iowa, United States",-1.408418696346291,41.6667,-91.5335
2015-04-02,"Franklin County, Iowa, United States",-0.6658595641646474,42.7333,-93.2669
2015-04-02,"Stacyville Community Nursing Home, Iowa, United States",-0.48426150121065,43.4325,-92.7832
2015-04-02,"Rock Rapids, Iowa, United States",-4.29042904290429,43.4272,-96.1759
2015-04-02,"Yale School, Iowa, United States",0.5760368663594467,41.2658,-94.09
2015-04-02,"Winneshiek County, Iowa, United States",3.9039039039039003,43.2833,-91.8502
2015-04-02,"Monticello, Iowa, United States",-0.265604249668,42.2383,-91.1871
2015-04-02,"Collegiate United Methodist Church, Iowa, United States",1.06761565836299,42.0217,-93.6535
2015-04-02,"Des Moines Police Department, Iowa, United States",-3.19410319410319,41.5861,-93.6155
2015-04-02,"Jones County, Iowa, United States",-1.01351351351352,42.1167,-91.1335
2015-04-02,"Story County, Iowa, United States",-5.3125,42.0333,-93.4669
2015-04-02,"Hauth Park, Iowa, United States",2.0979020979021,42.9364,-91.9488
2015-04-02,"Missionary Alliance Church, Iowa, United States",-1.8867924528301898,42.4786,-93.6438
2015-04-02,"Brooklyn, Iowa, United States",-0.021659584631260338,41.7336,-92.4455
2015-04-02,"Des Moines River, Iowa, United States",-0.58651026392962,41.3812,-91.4224
2015-04-02,"Monona County, Iowa, United States",-0.0851788756388401,42.0333,-95.967
2015-04-02,"Christian Church Disciples Of Christ, Iowa, United States",2.62725779967159,41.0264,-93.3099
2015-04-02,"Sioux City, Iowa, United States",-0.04612453690983178,42.5,-96.4003
2015-04-02,"Coon Rapids, Iowa, United States",-0.6915958681484818,41.8708,-94.6775
2015-04-02,"Council Bluffs, Iowa, United States",-0.02576165854622221,41.2619,-95.8608
2015-04-02,"Eddyville, Iowa, United States",1.6304347826086947,41.1565,-92.6374
2015-04-02,"Floyd County, Iowa, United States",-7.72014475271411,43.0666,-92.7835
2015-04-02,"Sioux County, Iowa, United States",-0.13440860215053765,42.7333,-96.2336
2015-04-02,"Cedar Rapids Police Department, Iowa, United States",-4.96894409937888,41.9736,-91.6696
2015-04-02,"Orange City, Iowa, United States",-1.1640211640211633,43.0072,-96.0583
2015-04-02,"Center Junction, Iowa, United States",-2.34009360374415,42.1161,-91.0871
2015-04-02,"Cedar Rapids, Iowa, United States",-0.17996900275870076,42.0083,-91.6441
2015-04-02,"Conesville, Iowa, United States",-0.05592841163310666,41.382,-91.3499
2015-04-02,"Centerville, Iowa, United States",2.04081632653061,40.7342,-92.8741
2015-04-02,"First United Methodist Church, Iowa, United States",0.13762321280437187,42.7897,-96.1653
2015-04-02,"Scott County, Iowa, United States",-1.7043041696723265,41.6334,-90.6335
2015-04-02,"Schleswig, Iowa, United States",-3.59116022099447,42.1653,-95.4369
2015-04-02,"Bloomington, Iowa, United States",-1.6418285858014212,42.0561,-93.5874
2015-04-02,"Anamosa, Iowa, United States",-2.42424242424243,42.1083,-91.2852
2015-04-02,"Clinton Public Library, Iowa, United States",0.35252643948296,41.8381,-90.191
2015-04-02,"Holy Trinity Lutheran Church, Iowa, United States",0.32938076416337,42.2805,-94.403
2015-04-02,"Stacyville, Iowa, United States",1.40056022408963,43.4361,-92.7824
2015-04-02,"Cedar Rapids Public Library, Iowa, United States",-1.48148148148148,41.975,-91.6652
2015-04-02,"Linn County, Iowa, United States",-2.904564315352695,42.0667,-91.6002
2015-04-02,"Muscatine County, Iowa, United States",-2.46376811594203,41.4667,-91.1335
2015-04-02,"Marshall County Sheriffs Office, Iowa, United States",-6.74846625766871,42.0458,-92.9096
2015-04-02,"Coggon, Iowa, United States",-0.8080808080808101,42.2808,-91.5304
2015-04-02,"Fort Dodge, Iowa, United States",-1.877707725112289,42.4975,-94.168
2015-04-02,"Clear Lake, Iowa, United States",0.3370930342692764,43.138,-93.3794
2015-04-02,"Forest City, Iowa, United States",-1.6297689818646994,43.2625,-93.6372
2015-04-02,"Charles City, Iowa, United States",-2.774828765067447,43.0664,-92.6724
2015-04-02,"University Park, Iowa, United States",-0.81552305961755,41.287,-92.6185
2015-04-02,"Central College, Iowa, United States",0.6097560975609734,41.4011,-92.9205
2015-04-02,"Muscatine, Iowa, United States",0.05867340978250193,41.4245,-91.0432
2015-04-02,"Cedar Falls, Iowa, United States",-0.018545146936313723,42.5278,-92.4455
2015-04-02,"Morningside College, Iowa, United States",0.024819086983299606,42.4747,-96.3595
2015-04-01,"Coal Valley, Iowa, United States",0.18987341772152,42.0317,-93.9508
2015-04-01,"Webster City, Iowa, United States",0.46620046620046,42.4694,-93.8161
2015-04-01,"Luther College, Iowa, United States",0.643474414069945,43.3125,-91.8049
2015-04-01,"Le Mars, Iowa, United States",-1.3157894736842102,42.7942,-96.1656
2015-04-01,"Conference Center, Iowa, United States",1.25,42.473,-96.3614
2015-04-01,"Black Hawk County, Iowa, United States",1.430785123966946,42.4667,-92.3168
2015-04-01,"Fort Dodge, Iowa, United States",-0.26455026455026504,42.4975,-94.168
2015-04-01,"Grand River, Iowa, United States",0.506329113924051,40.8194,-93.9624
2015-04-01,"Sac County, Iowa, United States",3.86473429951691,42.3833,-95.1169
2015-04-01,"Pine Creek, Iowa, United States",-3.48837209302325,43.4088,-91.8973
2015-04-01,"Keosauqua, Iowa, United States",0.2027027027027025,40.7303,-91.9624
2015-04-01,"Morningside, Iowa, United States",1.2544042026409337,42.4689,-96.3592
2015-04-01,"Sac City, Iowa, United States",-2.124342718967732,42.4222,-94.9897
2015-04-01,"Des Moines, Iowa, United States",0.0029880896843734236,41.6005,-93.6091
2015-04-01,"Wartburg College, Iowa, United States",0.08591065292096217,42.7278,-92.4813
2015-04-01,"Kennedy School, Iowa, United States",0.82051282051282,41.4222,-91.064
2015-04-01,"North High School, Iowa, United States",0.09182736455463734,41.6183,-93.623
2015-04-01,"Bedford, Iowa, United States",-0.27877626235477276,40.6669,-94.7214
2015-04-01,"Buena Vista University, Iowa, United States",2.1978021978022,42.6411,-95.2086
2015-04-01,"Scarville, Iowa, United States",0.0,43.4705,-93.6177
2015-04-01,"Cedar Rapids, Iowa, United States",-0.010951377698140067,42.0083,-91.6441
2015-04-01,"Council Bluffs, Iowa, United States",-0.5810654617193867,41.2619,-95.8608
2015-04-01,"Hancock County, Iowa, United States",-0.34843205574913,43.0833,-93.7169
2015-04-01,"Schleswig, Iowa, United States",-3.59116022099447,42.1653,-95.4369
2015-04-01,"Cerro Gordo County, Iowa, United States",-1.3804801347051476,43.0833,-93.2669
2015-04-01,"West Liberty, Iowa, United States",-0.03822629969419,41.57,-91.2638
2015-04-01,"Loras College, Iowa, United States",2.6431718061674,42.5042,-90.6815
2015-04-01,"Indianola, Iowa, United States",-0.2631802432340308,41.358,-93.5574
2015-04-01,"Rockwell City, Iowa, United States",-1.47783251231527,42.3953,-94.6339
2015-04-01,"Correctionville, Iowa, United States",-0.06564555756115042,42.475,-95.7856
2015-04-01,"Valley High School, Iowa, United States",0.027397260273972598,41.5797,-93.7122
2015-04-01,"Morningside College, Iowa, United States",0.24841456572141535,42.4747,-96.3595
2015-04-01,"Anamosa, Iowa, United States",-1.9286540741844176,42.1083,-91.2852
2015-04-01,"Fayette County, Iowa, United States",-1.629679352614211,42.8666,-91.8502
2015-04-01,"City Of Des Moines, Iowa, United States",-1.53374233128835,41.5743,-93.6171
2015-04-01,"Drake Stadium, Iowa, United States",0.8559201141226833,41.605,-93.6549
2015-04-01,"Hiawatha, Iowa, United States",-0.509727735018433,42.0358,-91.6821
2015-04-01,"International Center, Iowa, United States",0.16477485193182,41.6647,-91.5424
2015-04-01,"City Of Ames, Iowa, United States",-0.85470085470085,42.0255,-93.6269
2015-04-01,"Jones County, Iowa, United States",-2.864966725726211,42.1167,-91.1335
2015-04-01,"Luverne, Iowa, United States",1.01351351351351,42.9083,-94.0738
2015-04-01,"Sacred Heart Church, Iowa, United States",0.37974683544304,42.4641,-95.145
2015-04-01,"Cedar River, Iowa, United States",-0.6796116504854375,41.2831,-91.3468
2015-04-01,"Shell Rock, Iowa, United States",-0.43934087574431735,42.7103,-92.583
2015-04-01,"Sergeant Bluff, Iowa, United States",-0.240770465489565,42.4039,-96.3586
2015-04-01,"Aredale, Iowa, United States",-3.269230769230765,42.833,-93.0055
2015-04-01,"Dubuque County, Iowa, United States",-6.711409395973151,42.4833,-90.8668
2015-04-01,"Cornell College, Iowa, United States",-5.12249443207126,41.9258,-91.4254
2015-04-01,"Yale School, Iowa, United States",0.87655222790358,41.2658,-94.09
2015-04-01,"Forest City, Iowa, United States",0.40337068412235266,43.2625,-93.6372
2015-04-01,"Lewis Hall, Iowa, United States",0.42600896860986603,41.2731,-95.7989
2015-04-01,"Sioux City, Iowa, United States",-0.024119330168722405,42.5,-96.4003
2015-04-01,"Boone County, Iowa, United States",-11.6504854368932,42.0333,-93.9336
2015-04-01,"Indian Hills Community College, Iowa, United States",0.042737798319214385,41.0447,-92.3946
2015-04-01,"Warren County, Iowa, United States",-0.6369001942293001,41.3333,-93.5502
2015-04-01,"Williamsburg, Iowa, United States",0.08902111046985996,41.6611,-92.0091
2015-04-01,"Waukon, Iowa, United States",0.36142731356434166,43.2694,-91.4757
2015-04-01,"Ottumwa, Iowa, United States",-0.09585400454727469,41.02,-92.4113
2015-04-01,"Cresco, Iowa, United States",0.30610850857031,43.3814,-92.1141
2015-04-01,"Gowrie, Iowa, United States",-1.48514851485149,42.2805,-94.2908
2015-04-01,"Coralville, Iowa, United States",-2.192982456140352,41.6764,-91.5804
2015-04-01,"Mount Pleasant, Iowa, United States",0.21047519243267648,40.9636,-91.5579
2015-04-01,"Prairie View, Iowa, United States",-1.9401431707836296,40.7811,-94.2438
2015-04-01,"Blue Grass, Iowa, United States",0.37974683544304,41.5089,-90.766
2015-04-01,"Marshalltown Community College, Iowa, United States",0.52724077328646,42.0014,-92.9085
2015-04-01,"Pleasant Valley, Iowa, United States",0.235710240400819,41.5698,-90.4232
2015-04-01,"West Des Moines, Iowa, United States",-0.04191671584092307,41.5772,-93.7113
2015-04-01,"Mitchellville, Iowa, United States",-1.05820105820106,41.6686,-93.3577
2015-04-01,"Galesburg, Iowa, United States",-2.14497920380274,41.5589,-92.9463
2015-04-01,"Northwood-Kensett Elementary School, Iowa, United States",0.20242914979757,43.4455,-93.2155
2015-04-01,"Fort Madison, Iowa, United States",0.5847953216374266,40.6298,-91.3151
2015-04-01,"Fairview, Iowa, United States",1.01351351351351,42.0781,-91.3299
2015-04-01,"Clear Lake, Iowa, United States",-0.26394862752207,43.138,-93.3794
2015-04-01,"Central Lyon High School, Iowa, United States",0.05458515283843,43.4244,-96.1692
2015-04-01,"Memorial Lawn Cemetery, Iowa, United States",0.405405405405405,41.07,-92.4071
2015-04-01,"Muscatine, Iowa, United States",-0.002410605313875533,41.4245,-91.0432
2015-04-01,"Charles City, Iowa, United States",-0.3841740202459077,43.0664,-92.6724
2015-04-01,"Marshall County, Iowa, United States",-0.23387989630216482,42.0333,-93.0008
2015-04-01,"Webster County, Iowa, United States",-1.5120606966280083,42.4333,-94.1669
2015-04-01,"Polk County, Iowa, United States",-0.26455026455026504,41.6833,-93.5835
2015-04-01,"Coon Rapids, Iowa, United States",-1.47058823529412,41.8708,-94.6775
2015-04-01,"Caldwell Park, Iowa, United States",0.0,41.0333,-92.4299
2015-04-01,"Anamosa Police Department, Iowa, United States",-2.827781715095675,42.1075,-91.2854
2015-04-01,"Marshalltown, Iowa, United States",0.2782852478451393,42.0494,-92.908
2015-04-01,"Water Works Park, Iowa, United States",0.90497737556561,41.3545,-92.6574
2015-04-01,"Lamoni, Iowa, United States",1.82232346241458,40.6228,-93.9341
2015-04-01,"Mason City, Iowa, United States",-0.34843205574913,43.1536,-93.201
2015-04-01,"Clinton County, Iowa, United States",-0.0484496124031,41.8834,-90.5501
2015-04-01,"Cedar Falls, Iowa, United States",-0.12361104075299909,42.5278,-92.4455
2015-04-01,"Missouri Valley, Iowa, United States",-3.82262996941897,41.5564,-95.8878
2015-04-01,"Johnson County, Iowa, United States",-0.3421407003582894,41.6667,-91.5335
2015-04-01,"Floyd County, Iowa, United States",-0.43602296012607084,43.0666,-92.7835
2015-04-01,"Drake University, Iowa, United States",0.23076094243846262,41.6014,-93.6519
2015-03-31,"Pottawattamie County, Iowa, United States",-3.32512315270936,41.3333,-95.5336
2015-03-31,"Dubuque County, Iowa, United States",-1.2163743806016192,42.4833,-90.8668
2015-03-31,"Boone High School, Iowa, United States",0.0,42.0622,-93.8875
2015-03-31,"Kirkendall Public Library, Iowa, United States",3.00751879699248,41.7383,-93.6141
2015-03-31,"Cedar Falls, Iowa, United States",-0.26981905747390816,42.5278,-92.4455
2015-03-31,"Janesville, Iowa, United States",-1.17647058823529,42.6461,-92.463
2015-03-31,"Amana, Iowa, United States",0.0,41.8,-91.8707
2015-03-31,"Galesburg, Iowa, United States",-2.02491328986947,41.5589,-92.9463
2015-03-31,"Woodbury County, Iowa, United States",0.68649885583524,42.3833,-96.0336
2015-03-31,"Hiawatha, Iowa, United States",-0.0783042998383418,42.0358,-91.6821
2015-03-31,"Cedar Rapids, Iowa, United States",-0.0816036037224885,42.0083,-91.6441
2015-03-31,"Altoona, Iowa, United States",-3.3251231527093603,41.6442,-93.4647
2015-03-31,"Morningside College, Iowa, United States",0.10373443983402501,42.4747,-96.3595
2015-03-31,"Burlington, Iowa, United States",1.50375939849624,40.8075,-91.1129
2015-03-31,"Fort Madison, Iowa, United States",-2.38423218991079,40.6298,-91.3151
2015-03-31,"Shell Rock, Iowa, United States",1.01449275362319,42.7103,-92.583
2015-03-31,"Merle Hay Mall, Iowa, United States",-1.9819819819819835,41.6319,-93.7008
2015-03-31,"Brownville, Iowa, United States",5.88235294117647,43.3422,-92.676
2015-03-31,"Johnson County, Iowa, United States",0.28398303852131784,41.6667,-91.5335
2015-03-31,"Chickasaw County, Iowa, United States",-5.22875816993465,43.0666,-92.3168
2015-03-31,"Luverne, Iowa, United States",-0.65359477124183,42.9083,-94.0738
2015-03-31,"Iowa State Penitentiary, Iowa, United States",-2.31352271264836,40.6325,-91.2971
2015-03-31,"Williamsburg, Iowa, United States",-1.52671755725191,41.6611,-92.0091
2015-03-31,"City Of Ames, Iowa, United States",-0.23148148148148198,42.0255,-93.6269
2015-03-31,"Grace United Methodist Church, Iowa, United States",-2.27272727272727,42.8189,-95.805
2015-03-31,"Iowa City Police Department, Iowa, United States",-2.066532258064515,41.6603,-91.5293
2015-03-31,"Estherville, Iowa, United States",-3.82165605095542,43.4016,-94.8328
2015-03-31,"Muscatine, Iowa, United States",0.0612647762365258,41.4245,-91.0432
2015-03-31,"Ames Public Library, Iowa, United States",0.39447731755424337,42.0267,-93.6127
2015-03-31,"Linn County, Iowa, United States",-0.33192765130300234,42.0667,-91.6002
2015-03-31,"Mason City Police Department, Iowa, United States",-1.8560606060606033,43.1511,-93.1966
2015-03-31,"Dallas Center, Iowa, United States",-1.96926032660903,41.6844,-93.9611
2015-03-31,"Brooklyn, Iowa, United States",0.09549316657880776,41.7336,-92.4455
2015-03-31,"Marshalltown, Iowa, United States",-2.4390243902439,42.0494,-92.908
2015-03-31,"Webster City, Iowa, United States",0.46620046620046,42.4694,-93.8161
2015-03-31,"Floyd County, Iowa, United States",-0.690514281603375,43.0666,-92.7835
2015-03-31,"Dallas County, Iowa, United States",-2.1891479906073283,41.6833,-94.0502
2015-03-31,"Immanuel Lutheran Church, Iowa, United States",0.6993006993007,43.1553,-92.2355
2015-03-31,"Ottumwa, Iowa, United States",-0.97560975609756,41.02,-92.4113
2015-03-31,"Winneshiek County, Iowa, United States",-0.8512641296029153,43.2833,-91.8502
2015-03-31,"Webster County, Iowa, United States",-2.906655315386338,42.4333,-94.1669
2015-03-31,"Dyersville, Iowa, United States",8.43373493975904,42.4844,-91.1229
2015-03-31,"Cornell College, Iowa, United States",-2.083333333333335,41.9258,-91.4254
2015-03-31,"Pleasant Valley, Iowa, United States",0.1740947075208925,41.5698,-90.4232
2015-03-31,"Coralville, Iowa, United States",-0.5938665788896197,41.6764,-91.5804
2015-03-31,"Sac City, Iowa, United States",-5.8219178082192,42.4222,-94.9897
2015-03-31,"East High School, Iowa, United States",-0.4885993485342,41.5969,-93.5999
2015-03-31,"Community Health Care, Iowa, United States",0.19083969465649,41.5206,-90.5807
2015-03-31,"Mason City, Iowa, United States",-0.14223234761883444,43.1536,-93.201
2015-03-31,"Clayton County, Iowa, United States",-4.9438202247191,42.8333,-91.3668
2015-03-31,"Ray House, Iowa, United States",0.423728813559326,42.1622,-92.0241
2015-03-31,"Fredericksburg, Iowa, United States",-5.22875816993465,42.9653,-92.1996
2015-03-31,"Boone County, Iowa, United States",1.58730158730158,42.0333,-93.9336
2015-03-31,"Buchanan County, Iowa, United States",-2.1952035694367003,42.4667,-91.8502
2015-03-31,"Johnson County Jail, Iowa, United States",-4.71204188481675,41.655,-91.5366
2015-03-31,"Camp Dodge, Iowa, United States",2.46478873239437,41.6997,-93.7074
2015-03-31,"Cass County, Iowa, United States",-1.3888888888888897,41.3333,-94.9336
2015-03-31,"East School, Iowa, United States",-3.296703296703295,41.3156,-93.0919
2015-03-31,"Des Moines, Iowa, United States",-0.002950842064623918,41.6005,-93.6091
2015-03-31,"Polk County, Iowa, United States",-1.66256157635468,41.6833,-93.5835
2015-03-31,"Emmaus Bible College, Iowa, United States",2.17278841179514,42.5092,-90.7051
2015-03-31,"Freeport, Iowa, United States",-0.41771094402673287,43.3022,-91.7435
2015-03-31,"Council Bluffs, Iowa, United States",-0.20711125360732674,41.2619,-95.8608
2015-03-31,"Harrison County, Iowa, United States",-4.242424242424233,41.6833,-95.7836
2015-03-31,"Storm Lake, Iowa, United States",-1.2358004210283053,42.6411,-95.2097
2015-03-31,"Carter Lake, Iowa, United States",-0.859375,41.2906,-95.9181
2015-03-31,"Clear Lake, Iowa, United States",-1.1903582082811672,43.138,-93.3794
2015-03-31,"Lime Creek, Iowa, United States",0.44052863436123674,41.4897,-91.7755
2015-03-31,"Family Medicine, Iowa, United States",-0.29130253849354665,41.7414,-92.7332
2015-03-31,"Glenwood, Iowa, United States",4.34557682359028,41.0469,-95.7425
2015-03-31,"Sioux City, Iowa, United States",0.012920993438645547,42.5,-96.4003
2015-03-31,"Scott County, Iowa, United States",0.40485829959514164,41.6334,-90.6335
2015-03-31,"Pekin, Iowa, United States",0.615114235500875,41.1628,-92.1596
2015-03-31,"Mercy Medical Center, Iowa, United States",-4.824561403508779,41.5988,-93.6233
2015-03-31,"Allamakee County, Iowa, United States",0.63291139240506,43.2833,-91.3668
2015-03-31,"Buchanan Hall, Iowa, United States",0.3823427181091399,42.43,-92.3307
2015-03-31,"Physical Plant, Iowa, United States",0.2758620689655166,41.3639,-93.5622
2015-03-31,"City Of Des Moines, Iowa, United States",-0.76923076923076,41.5743,-93.6171
2015-03-31,"West Des Moines, Iowa, United States",-0.713266761768902,41.5772,-93.7113
2015-03-31,"Maquoketa, Iowa, United States",-0.34153005464481,42.0689,-90.6657
2015-03-31,"Missouri Valley, Iowa, United States",-1.0015337660035828,41.5564,-95.8878
2015-03-31,"Green Acres, Iowa, United States",-0.18365472910927,41.57,-90.6101
2015-03-31,"Jasper County, Iowa, United States",0.0,41.6833,-93.0502
2015-03-31,"Grundy County, Iowa, United States",-4.62962962962963,42.4,-92.8002
2015-03-31,"Cerro Gordo County, Iowa, United States",-1.1458355483136577,43.0833,-93.2669
2015-03-31,"Black Hawk County, Iowa, United States",-3.659284079764626,42.4667,-92.3168
2015-03-31,"Chariton Cemetery, Iowa, United States",0.53619302949061,41.0028,-93.3099
2015-03-31,"Clinton Police Department, Iowa, United States",-0.6942818028959844,41.8398,-90.1871
2015-03-30,"Pocahontas, Iowa, United States",-2.00573065902579,42.7355,-94.6691
2015-03-30,"Indianola, Iowa, United States",-0.09842519685039375,41.358,-93.5574
2015-03-30,"Brooklyn, Iowa, United States",0.13075583841654417,41.7336,-92.4455
2015-03-30,"Simpson College, Iowa, United States",-0.393700787401575,41.365,-93.5635
2015-03-30,"Cedar Falls, Iowa, United States",-2.98507462686567,42.5278,-92.4455
2015-03-30,"Southpark Mall, Iowa, United States",1.02827763496144,43.1355,-95.1611
2015-03-30,"Primghar, Iowa, United States",-0.85470085470085,43.0869,-95.6272
2015-03-30,"Hancock County, Iowa, United States",-0.2772485648947211,43.0833,-93.7169
2015-03-30,"Iowa State Penitentiary, Iowa, United States",-2.527917728234065,40.6325,-91.2971
2015-03-30,"Lake Darling State Park, Iowa, United States",1.50375939849624,41.1917,-91.8957
2015-03-30,"Grundy County, Iowa, United States",0.21398002853067,42.4,-92.8002
2015-03-30,"Oskaloosa, Iowa, United States",-0.02284544993416238,41.2964,-92.6444
2015-03-30,"Mason City, Iowa, United States",-0.13846706499838687,43.1536,-93.201
2015-03-30,"Winneshiek County, Iowa, United States",0.63291139240506,43.2833,-91.8502
2015-03-30,"Carter Lake, Iowa, United States",-1.33138155097084,41.2906,-95.9181
2015-03-30,"Scott County, Iowa, United States",-0.52631578947369,41.6334,-90.6335
2015-03-30,"Linn County Jail, Iowa, United States",-0.68897637795275,41.9746,-91.6693
2015-03-30,"Mahaska County, Iowa, United States",0.6640106241699867,41.3333,-92.6502
2015-03-30,"Sioux City Public Library, Iowa, United States",1.0808270676691725,42.4961,-96.4053
2015-03-30,"Winterset, Iowa, United States",0.60344827586207,41.3308,-94.0138
2015-03-30,"Sioux City, Iowa, United States",-0.09711036390994392,42.5,-96.4003
2015-03-30,"Orange City, Iowa, United States",-0.680272108843535,43.0072,-96.0583
2015-03-30,"Linn County, Iowa, United States",-0.08703220191471,42.0667,-91.6002
2015-03-30,"Cedar Rapids, Iowa, United States",-0.14455403628393587,42.0083,-91.6441
2015-03-30,"Bickelhaupt Arboretum, Iowa, United States",5.22875816993464,41.8425,-90.2193
2015-03-30,"Mason City Police Department, Iowa, United States",-1.0101010101010102,43.1511,-93.1966
2015-03-30,"Buena Vista University, Iowa, United States",-1.7632241813602,42.6411,-95.2086
2015-03-30,"Central College, Iowa, United States",3.37078651685393,41.4011,-92.9205
2015-03-30,"Floyd County, Iowa, United States",-1.21012101210121,43.0666,-92.7835
2015-03-30,"Tama County, Iowa, United States",0.9693053311793199,42.0667,-92.5335
2015-03-30,"Plymouth County, Iowa, United States",0.49696772906075504,42.7333,-96.2336
2015-03-30,"Cedar Rapids Police Department, Iowa, United States",-1.6584066155811639,41.9736,-91.6696
2015-03-30,"First Mennonite Church, Iowa, United States",-0.13779527559055,41.6534,-91.5446
2015-03-30,"Adair County, Iowa, United States",-1.26953125,41.3333,-94.4669
2015-03-30,"Hampton-Dumont High School, Iowa, United States",-0.05420054200542,42.7533,-93.2085
2015-03-30,"Butler County, Iowa, United States",0.085592011412268,42.7333,-92.7835
2015-03-30,"Cedar County, Iowa, United States",1.099830795262265,41.7667,-91.1335
2015-03-30,"Clear Lake, Iowa, United States",0.38147300970851195,43.138,-93.3794
2015-03-30,"Allamakee County, Iowa, United States",0.63291139240506,43.2833,-91.3668
2015-03-30,"Carroll County, Iowa, United States",1.8648018648018632,42.0333,-94.8836
2015-03-30,"Coralville, Iowa, United States",0.0,41.6764,-91.5804
2015-03-30,"Penn Central Mall, Iowa, United States",0.7722007722007733,41.295,-92.6474
2015-03-30,"Polk County, Iowa, United States",-0.2634352447705196,41.6833,-93.5835
2015-03-30,"Wapello County, Iowa, United States",0.4405286343612333,41.0333,-92.4169
2015-03-30,"Altoona, Iowa, United States",1.4005602240896367,41.6442,-93.4647
2015-03-30,"Forest City, Iowa, United States",1.09689213893967,43.2625,-93.6372
2015-03-30,"Mercy Hospital, Iowa, United States",-1.5665729201608196,41.6641,-91.5285
2015-03-30,"Muscatine, Iowa, United States",0.029829128138939016,41.4245,-91.0432
2015-03-30,"Webster City, Iowa, United States",0.46620046620046,42.4694,-93.8161
2015-03-30,"Fort Dodge, Iowa, United States",0.2755469734673431,42.4975,-94.168
2015-03-30,"Poweshiek County, Iowa, United States",1.79445350734095,41.6833,-92.5335
2015-03-30,"Cerro Gordo County, Iowa, United States",-0.6371855672962243,43.0833,-93.2669
2015-03-30,"Jasper County, Iowa, United States",-0.52931596091205,41.6833,-93.0502
2015-03-30,"Mount Pleasant, Iowa, United States",0.15128004868109057,40.9636,-91.5579
2015-03-30,"Des Moines, Iowa, United States",0.0054281931663660654,41.6005,-93.6091
2015-03-30,"Johnson County, Iowa, United States",-0.23658632476765637,41.6667,-91.5335
2015-03-30,"Fort Madison, Iowa, United States",-2.80207066741119,40.6298,-91.3151
2015-03-30,"United Methodist, Iowa, United States",0.8737439930100467,41.7555,-94.0322
2015-03-30,"Council Bluffs, Iowa, United States",-0.5358173905215764,41.2619,-95.8608
2015-03-30,"Cedar Valley, Iowa, United States",0.7233371435493963,41.7264,-91.2466
2015-03-30,"Greene County, Iowa, United States",-0.24736851084156442,42.0333,-94.4002
2015-03-30,"Lee County, Iowa, United States",2.05882352941177,40.65,-91.4835
2015-03-30,"Raccoon River Park, Iowa, United States",2.2508038585209,41.5555,-93.728
2015-03-30,"Beaconsfield, Iowa, United States",1.96078431372549,40.8078,-94.0505
2015-03-30,"Burlington, Iowa, United States",4.86725663716814,40.8075,-91.1129
2015-03-29,"Marshalltown, Iowa, United States",0.851581508515815,42.0494,-92.908
2015-03-29,"Princeton, Iowa, United States",-0.4293893129771,41.6748,-90.3404
2015-03-29,"Council Bluffs, Iowa, United States",-0.7789596024890139,41.2619,-95.8608
2015-03-29,"Woodbury Central Community School, Iowa, United States",-0.26595744680851,42.4842,-96.0684
2015-03-29,"Le Mars, Iowa, United States",0.34834855299622747,42.7942,-96.1656
2015-03-29,"Grundy County, Iowa, United States",0.2029806380821005,42.4,-92.8002
2015-03-29,"Reinbeck, Iowa, United States",-0.1359927470534925,42.3236,-92.5994
2015-03-29,"Polk County, Iowa, United States",-0.31914893617021,41.6833,-93.5835
2015-03-29,"Valley Junction, Iowa, United States",0.187265917602995,41.5692,-93.7097
2015-03-29,"Fox River, Iowa, United States",0.2746309646412633,40.6114,-91.9299
2015-03-29,"Mitchell County, Iowa, United States",0.061034055958969255,43.35,-92.7835
2015-03-29,"Sioux City, Iowa, United States",0.02011888458317029,42.5,-96.4003
2015-03-29,"Coralville, Iowa, United States",0.08003903794681753,41.6764,-91.5804
2015-03-29,"Mason City, Iowa, United States",-0.8639347793339185,43.1536,-93.201
2015-03-29,"Shelby County, Iowa, United States",-0.97222222222222,41.6833,-95.3336
2015-03-29,"Cedar Valley, Iowa, United States",0.08301399271829066,41.7264,-91.2466
2015-03-29,"North Liberty, Iowa, United States",0.917431192660549,41.7492,-91.5979
2015-03-29,"Fort Dodge, Iowa, United States",0.28218694885361556,42.4975,-94.168
2015-03-29,"Worth County, Iowa, United States",1.7361111111111203,43.3833,-93.2669
2015-03-29,"Buena Vista University, Iowa, United States",-1.57880928068981,42.6411,-95.2086
2015-03-29,"Ottumwa, Iowa, United States",0.6172839506172834,41.02,-92.4113
2015-03-29,"Cedar Rapids, Iowa, United States",-0.2841418125173509,42.0083,-91.6441
2015-03-29,"Davis County, Iowa, United States",0.8670520231213874,40.7506,-92.4169
2015-03-29,"Rock Valley, Iowa, United States",-1.03329506314581,43.2053,-96.295
2015-03-29,"Clear Lake, Iowa, United States",-0.17730496453900668,43.138,-93.3794
2015-03-29,"Museum Of Art, Iowa, United States",1.13475177304964,41.6653,-91.5402
2015-03-29,"Mount Pleasant, Iowa, United States",0.507936507936508,40.9636,-91.5579
2015-03-29,"First Presbyterian Church, Iowa, United States",0.4257907542579075,41.5364,-90.5701
2015-03-29,"Woodbury County, Iowa, United States",0.6430993359097922,42.3833,-96.0336
2015-03-29,"Deerfield, Iowa, United States",-0.582850865040131,43.1636,-92.4955
2015-03-29,"Muscatine, Iowa, United States",0.03722211365772475,41.4245,-91.0432
2015-03-29,"Mitchellville, Iowa, United States",-2.16374269005848,41.6686,-93.3577
2015-03-29,"Butler County, Iowa, United States",0.06742511673485352,42.7333,-92.7835
2015-03-29,"Webster County, Iowa, United States",-0.058705108320985355,42.4333,-94.1669
2015-03-29,"Cedar Rapids Police Department, Iowa, United States",-7.981220657277001,41.9736,-91.6696
2015-03-29,"Waterloo Police Department, Iowa, United States",-3.15240005431393,42.4992,-92.3318
2015-03-29,"West Point, Iowa, United States",-3.04878048780488,40.7167,-91.4502
2015-03-29,"Minburn, Iowa, United States",2.466367713004485,41.7564,-94.0275
2015-03-29,"United Methodist Church, Iowa, United States",-0.05673758865248333,43.4294,-96.1722
2015-03-29,"Crystal Lake, Iowa, United States",-0.3687315634218275,43.2233,-93.7924
2015-03-29,"United Methodist, Iowa, United States",-4.32748538011696,41.7555,-94.0322
2015-03-29,"Stacyville, Iowa, United States",-0.9760385010175167,43.4361,-92.7824
2015-03-29,"El Dorado, Iowa, United States",-4.73428222348464,43.0505,-91.8354
2015-03-29,"Forest City, Iowa, United States",-0.24582104228121834,43.2625,-93.6372
2015-03-29,"Maquoketa, Iowa, United States",-1.82038834951456,42.0689,-90.6657
2015-03-29,"Valley School, Iowa, United States",0.2893518518518517,40.7678,-92.1305
2015-03-29,"Des Moines, Iowa, United States",0.007531103516214177,41.6005,-93.6091
2015-03-29,"Orange City, Iowa, United States",-2.06659012629162,43.0072,-96.0583
2015-03-29,"Nora Springs, Iowa, United States",-0.367647058823525,43.1427,-93.0044
2015-03-29,"Hope House, Iowa, United States",0.61050061050061,41.6984,-91.6048
2015-03-29,"Black Hawk County, Iowa, United States",-0.7480314960629925,42.4667,-92.3168
2015-03-29,"Webster City, Iowa, United States",0.8724318317341551,42.4694,-93.8161
2015-03-29,"Iowa City, Iowa, United States",0.15262515262515247,41.6611,-91.5302
2015-03-29,"Rockwell City, Iowa, United States",0.8465608465608467,42.3953,-94.6339
2015-03-29,"Rod Library, Iowa, United States",1.090225563909775,42.515,-92.4599
2015-03-29,"Central College, Iowa, United States",0.22123893805309752,41.4011,-92.9205
2015-03-29,"Dakota City, Iowa, United States",0.45146726862303,42.7222,-94.1972
2015-03-29,"Oskaloosa, Iowa, United States",-0.2789971251658569,41.2964,-92.6444
2015-03-29,"Cerro Gordo County, Iowa, United States",-0.1921249015302779,43.0833,-93.2669
2015-03-29,"Janesville, Iowa, United States",-0.02431610942249286,42.6461,-92.463
2015-03-29,"Plymouth County, Iowa, United States",0.34312109529505236,42.7333,-96.2336
2015-03-29,"Dyersville, Iowa, United States",0.626398210290828,42.4844,-91.1229
2015-03-29,"Cedar Falls, Iowa, United States",-0.2731436207659036,42.5278,-92.4455
2015-03-28,"Mason City Police Department, Iowa, United States",-2.79898218829517,43.1511,-93.1966
2015-03-28,"Dickinson County, Iowa, United States",-1.21212121212121,43.3833,-95.1503
2015-03-28,"Cerro Gordo County, Iowa, United States",-1.8536240893425873,43.0833,-93.2669
2015-03-28,"Cedar Falls, Iowa, United States",-0.6854907979147539,42.5278,-92.4455
2015-03-28,"Dakota City, Iowa, United States",-2.152538038613985,42.7222,-94.1972
2015-03-28,"West Liberty, Iowa, United States",0.65040650406504,41.57,-91.2638
2015-03-28,"Mercy Medical Center, Iowa, United States",4.18410041841004,41.5988,-93.6233
