eventdate,ActionGeo_FullName,tone,ActionGeo_Lat,ActionGeo_Long
2014-08-07,"Orange City, Iowa, United States",0.11502929652395878,43.0072,-96.0583
2014-08-07,"Cedar Rapids, Iowa, United States",0.1534649317863473,42.0083,-91.6441
2014-08-07,"Stephens Auditorium, Iowa, United States",1.17994100294985,42.0203,-93.6377
2014-08-07,"Story County, Iowa, United States",0.42372881355932196,42.0333,-93.4669
2014-08-07,"English River, Iowa, United States",0.7571801566579625,41.4875,-91.5018
2014-08-07,"Field Of Dreams, Iowa, United States",2.4886877828054303,42.4978,-91.054
2014-08-07,"Newton Clinic, Iowa, United States",0.47566371681415875,41.703,-93.0513
2014-08-07,"Forest City, Iowa, United States",1.3986013986014,43.2625,-93.6372
2014-08-07,"Black Hawk County, Iowa, United States",1.672535211267605,42.4667,-92.3168
2014-08-07,"Janesville, Iowa, United States",0.4830917874396133,42.6461,-92.463
2014-08-07,"Sioux City Convention Center, Iowa, United States",0.75,42.4944,-96.3995
2014-08-07,"Linn County, Iowa, United States",0.1395348837209301,42.0667,-91.6002
2014-08-07,"Fort Dodge, Iowa, United States",1.3364779874213848,42.4975,-94.168
2014-08-07,"Blencoe, Iowa, United States",0.1644736842105263,41.9303,-96.0808
2014-08-07,"Fairview, Iowa, United States",1.8691588785046738,42.0781,-91.3299
2014-08-07,"Carroll County, Iowa, United States",0.2212389380530975,42.0333,-94.8836
2014-08-07,"Creston, Iowa, United States",2.4263431542461,41.0586,-94.3614
2014-08-07,"Episcopal Church, Iowa, United States",3.3988533988534,42.4622,-93.8319
2014-08-07,"Cedar Falls, Iowa, United States",0.14192028643255747,42.5278,-92.4455
2014-08-07,"Mason City, Iowa, United States",0.20000768539461222,43.1536,-93.201
2014-08-07,"Des Moines, Iowa, United States",0.07630374550103347,41.6005,-93.6091
2014-08-07,"Sioux City, Iowa, United States",0.024375587574672918,42.5,-96.4003
2014-08-07,"Urbandale, Iowa, United States",0.7845479888490637,41.6267,-93.7122
2014-08-07,"Dorothy Pecaut Nature Center, Iowa, United States",0.271186440677966,42.55,-96.467
2014-08-07,"Exira, Iowa, United States",0.0,41.5908,-94.8755
2014-08-07,"Polk County, Iowa, United States",0.3631207492167438,41.6833,-93.5835
2014-08-07,"Jasper County, Iowa, United States",0.13596569565351269,41.6833,-93.0502
2014-08-07,"Southeast Polk High School, Iowa, United States",4.08163265306122,41.5992,-93.438
2014-08-07,"Kalona, Iowa, United States",3.88888888888889,41.4831,-91.706
2014-08-07,"Onawa, Iowa, United States",2.64550264550265,42.0267,-96.0972
2014-08-07,"Dubuque County, Iowa, United States",0.86741016109046,42.4833,-90.8668
2014-08-07,"Okoboji, Iowa, United States",0.2151564513831762,43.3864,-95.1483
2014-08-07,"Eagle Grove, Iowa, United States",0.0,42.6641,-93.9044
2014-08-07,"Pocahontas Community Hospital, Iowa, United States",2.64550264550265,42.7411,-94.6779
2014-08-07,"Muscatine, Iowa, United States",0.20342033138626678,41.4245,-91.0432
2014-08-07,"West Branch, Iowa, United States",0.22900763358778667,41.6714,-91.3465
2014-08-07,"Skiff Medical Center, Iowa, United States",1.26843657817109,41.7031,-93.0516
2014-08-07,"Sunset Park, Iowa, United States",1.517241379310345,42.0011,-95.3747
2014-08-07,"Ida County, Iowa, United States",1.8433179723502302,42.3833,-95.5169
2014-08-07,"New Virginia, Iowa, United States",1.21138703815869,41.1822,-93.7288
2014-08-07,"Woodbury County, Iowa, United States",0.677966101694916,42.3833,-96.0336
2014-08-07,"Grandview, Iowa, United States",2.06896551724138,41.2759,-91.1885
2014-08-07,"Anamosa, Iowa, United States",1.76522506619594,42.1083,-91.2852
2014-08-07,"Mahaska County, Iowa, United States",0.5876068376068377,41.3333,-92.6502
2014-08-07,"Butler County, Iowa, United States",4.08163265306122,42.7333,-92.7835
2014-08-07,"Council Bluffs, Iowa, United States",1.43884892086331,41.2619,-95.8608
2014-08-07,"Treynor, Iowa, United States",1.05263157894737,41.2325,-95.6131
2014-08-07,"Guthrie Center, Iowa, United States",0.9232728430436167,41.6772,-94.5033
2014-08-07,"Urbana, Iowa, United States",2.7122641509434,42.2242,-91.8743
2014-08-07,"Oskaloosa, Iowa, United States",0.8257631257631275,41.2964,-92.6444
2014-08-07,"Madison County, Iowa, United States",4.23452768729642,41.3333,-94.0169
2014-08-07,"Memorial Union, Iowa, United States",0.7463793922127246,42.0233,-93.6458
2014-08-07,"Clear Lake, Iowa, United States",0.3536744359279274,43.138,-93.3794
2014-08-07,"Burlington, Iowa, United States",0.07590171348593576,40.8075,-91.1129
2014-08-07,"Des Moines Church, Iowa, United States",0.67911714770798,40.9464,-92.2035
2014-08-07,"Indianola, Iowa, United States",1.2620601193463816,41.358,-93.5574
2014-08-07,"Worth County, Iowa, United States",-0.55401662049861,43.3833,-93.2669
2014-08-07,"City Of Urbandale, Iowa, United States",4.91543477696085,41.6378,-93.7783
2014-08-07,"Center Junction, Iowa, United States",0.441306266548985,42.1161,-91.0871
2014-08-07,"Rock Valley, Iowa, United States",0.0,43.2053,-96.295
2014-08-07,"Richland, Iowa, United States",2.00573065902579,41.1856,-91.993
2014-08-07,"Sergeant Bluff, Iowa, United States",0.1264018816737312,42.4039,-96.3586
2014-08-07,"Jones County, Iowa, United States",0.88261253309797,42.1167,-91.1335
2014-08-06,"Evansdale, Iowa, United States",0.43103448275862,42.4692,-92.281
2014-08-06,"Black Hawk County, Iowa, United States",0.4881450488145033,42.4667,-92.3168
2014-08-06,"Cedar Falls, Iowa, United States",0.07320255556443561,42.5278,-92.4455
2014-08-06,"Fort Madison, Iowa, United States",0.009922097493968357,40.6298,-91.3151
2014-08-06,"Cerro Gordo County, Iowa, United States",0.20790952672583676,43.0833,-93.2669
2014-08-06,"North Liberty, Iowa, United States",1.7857142857142851,41.7492,-91.5979
2014-08-06,"Lake Mills, Iowa, United States",1.51869158878505,43.4194,-93.5333
2014-08-06,"Jasper County, Iowa, United States",0.12270903573161553,41.6833,-93.0502
2014-08-06,"Traer, Iowa, United States",0.81967213114754,42.1936,-92.4655
2014-08-06,"Jefferson Elementary School, Iowa, United States",0.946372239747635,43.1486,-95.1386
2014-08-06,"Council Bluffs, Iowa, United States",1.426307448494455,41.2619,-95.8608
2014-08-06,"Mercy Medical Center, Iowa, United States",0.0,41.5988,-93.6233
2014-08-06,"Rockwell City, Iowa, United States",2.090032154340835,42.3953,-94.6339
2014-08-06,"Johnson County, Iowa, United States",0.18507528913865368,41.6667,-91.5335
2014-08-06,"Union County, Iowa, United States",1.653696498054475,41.0333,-94.2508
2014-08-06,"Sac City, Iowa, United States",1.0687022900763359,42.4222,-94.9897
2014-08-06,"Howard County, Iowa, United States",1.092117758784425,43.35,-92.3168
2014-08-06,"Dubuque County, Iowa, United States",0.16965324798984346,42.4833,-90.8668
2014-08-06,"Creston, Iowa, United States",1.653696498054475,41.0586,-94.3614
2014-08-06,"Clinton Police Department, Iowa, United States",0.141643059490085,41.8398,-90.1871
2014-08-06,"Jasper County Sheriffs Office, Iowa, United States",0.22075055187638,41.7,-93.0544
2014-08-06,"Urbana, Iowa, United States",2.68065268065268,42.2242,-91.8743
2014-08-06,"Ottumwa, Iowa, United States",0.6631621256666982,41.02,-92.4113
2014-08-06,"Oakdale, Iowa, United States",0.8422018634983136,41.7064,-91.603
2014-08-06,"Orange City, Iowa, United States",0.6794055201698506,43.0072,-96.0583
2014-08-06,"Sheffield Public Library, Iowa, United States",0.7272727272727275,42.893,-93.2141
2014-08-06,"Riceville, Iowa, United States",1.092117758784425,43.3639,-92.5541
2014-08-06,"Cedar Valley, Iowa, United States",4.88888888888889,41.7264,-91.2466
2014-08-06,"Fort Dodge, Iowa, United States",0.3270975432438948,42.4975,-94.168
2014-08-06,"Boone County, Iowa, United States",-0.030057108506161667,42.0333,-93.9336
2014-08-06,"Okoboji, Iowa, United States",0.23932649845772144,43.3864,-95.1483
2014-08-06,"Jefferson County, Iowa, United States",1.7156862745097998,41.0334,-91.9502
2014-08-06,"Leeds Park, Iowa, United States",3.87596899224806,42.5406,-96.362
2014-08-06,"Urbandale, Iowa, United States",1.13417951542863,41.6267,-93.7122
2014-08-06,"Janesville, Iowa, United States",0.11721214654955023,42.6461,-92.463
2014-08-06,"Marshall County, Iowa, United States",0.94722598105548,42.0333,-93.0008
2014-08-06,"Agape Christian Family Church, Iowa, United States",1.52905198776758,43.1377,-93.4238
2014-08-06,"Rock Valley, Iowa, United States",2.69205515430072,43.2053,-96.295
2014-08-06,"Fort Madison Police Department, Iowa, United States",0.0,40.6328,-91.3121
2014-08-06,"Clinton County, Iowa, United States",0.1812678156963455,41.8834,-90.5501
2014-08-06,"Storm Lake, Iowa, United States",0.5154639175257725,42.6411,-95.2097
2014-08-06,"Pella Public Library, Iowa, United States",0.9696969696969701,41.4044,-92.9169
2014-08-06,"Summit Farms, Iowa, United States",0.7589285714285725,43.4561,-96.3278
2014-08-06,"Red Oak, Iowa, United States",1.063829787234045,41.0097,-95.2255
2014-08-06,"Eddyville, Iowa, United States",3.59712230215827,41.1565,-92.6374
2014-08-06,"Polk County, Iowa, United States",1.113861386138615,41.6833,-93.5835
2014-08-06,"Midvale, Iowa, United States",2.32067510548523,41.9294,-93.6102
2014-08-06,"Cedar Rapids, Iowa, United States",0.2338786423550449,42.0083,-91.6441
2014-08-06,"Northeast Iowa Community College, Iowa, United States",1.4438166980539868,43.1753,-91.8665
2014-08-06,"Scott County, Iowa, United States",0.1445351705520424,41.6334,-90.6335
2014-08-06,"Des Moines, Iowa, United States",0.05330603520267958,41.6005,-93.6091
2014-08-06,"Blencoe, Iowa, United States",0.04786036036036033,41.9303,-96.0808
2014-08-06,"West Branch, Iowa, United States",0.9416195856873821,41.6714,-91.3465
2014-08-06,"Mercy Hospital, Iowa, United States",2.04571871367687,41.6641,-91.5285
2014-08-06,"Mason City, Iowa, United States",0.30678523639067307,43.1536,-93.201
2014-08-06,"Lee County, Iowa, United States",0.217391304347826,40.65,-91.4835
2014-08-06,"Appanoose County, Iowa, United States",0.65359477124183,40.7506,-92.8669
2014-08-06,"Sioux City, Iowa, United States",0.02852300095952355,42.5,-96.4003
2014-08-06,"Grundy County, Iowa, United States",2.46913580246914,42.4,-92.8002
2014-08-06,"Field Of Dreams, Iowa, United States",6.99523052464229,42.4978,-91.054
2014-08-06,"Forest City, Iowa, United States",0.2562038858829319,43.2625,-93.6372
2014-08-06,"Mount Pleasant, Iowa, United States",0.39606785962661634,40.9636,-91.5579
2014-08-05,"Des Moines, Iowa, United States",0.08085541161231664,41.6005,-93.6091
2014-08-05,"Cedar Falls, Iowa, United States",0.2122549526604523,42.5278,-92.4455
2014-08-05,"Polk County, Iowa, United States",1.730959446092975,41.6833,-93.5835
2014-08-05,"Kalona, Iowa, United States",5.29661016949153,41.4831,-91.706
2014-08-05,"Council Bluffs, Iowa, United States",0.2557536370261933,41.2619,-95.8608
2014-08-05,"Tama County, Iowa, United States",5.06329113924051,42.0667,-92.5335
2014-08-05,"Pleasant Grove, Iowa, United States",0.550964187327824,40.9675,-91.2879
2014-08-05,"Woodbury County, Iowa, United States",0.0,42.3833,-96.0336
2014-08-05,"Mount Pleasant, Iowa, United States",0.9539121641551906,40.9636,-91.5579
2014-08-05,"Davenport Municipal Airport, Iowa, United States",2.65339966832504,41.6111,-90.5857
2014-08-05,"Museum Of Natural History, Iowa, United States",0.7619047619047615,41.662,-91.5341
2014-08-05,"Orange City, Iowa, United States",0.0,43.0072,-96.0583
2014-08-05,"Musser Public Library, Iowa, United States",1.0638297872340425,41.4222,-91.0474
2014-08-05,"West High School, Iowa, United States",2.47093023255814,41.537,-90.6271
2014-08-05,"Waverly Public Library, Iowa, United States",0.45156649616368194,42.7261,-92.4893
2014-08-05,"Story County, Iowa, United States",0.291545189504373,42.0333,-93.4669
2014-08-05,"Janesville, Iowa, United States",0.26573559150657167,42.6461,-92.463
2014-08-05,"Iowa City Police Department, Iowa, United States",0.0310077519379845,41.6603,-91.5293
2014-08-05,"Fayette County, Iowa, United States",0.18450184501845,42.8666,-91.8502
2014-08-05,"Clear Lake, Iowa, United States",0.447174540483063,43.138,-93.3794
2014-08-05,"Johnson County Jail, Iowa, United States",0.18115942028985496,41.655,-91.5366
2014-08-05,"Morningside College, Iowa, United States",1.63934426229508,42.4747,-96.3595
2014-08-05,"New Hampton, Iowa, United States",0.0,43.0591,-92.3177
2014-08-05,"Okoboji, Iowa, United States",0.15306404427061268,43.3864,-95.1483
2014-08-05,"Clinton County, Iowa, United States",0.641025641025641,41.8834,-90.5501
2014-08-05,"Bremer County, Iowa, United States",2.10597826086956,42.7666,-92.3168
2014-08-05,"Galesburg, Iowa, United States",0.4240882103477533,41.5589,-92.9463
2014-08-05,"Mount Vernon, Iowa, United States",0.16025641025641033,41.922,-91.4168
2014-08-05,"Frytown, Iowa, United States",1.3241525423728826,41.57,-91.7324
2014-08-05,"Cedar Rapids, Iowa, United States",0.3149006304748858,42.0083,-91.6441
2014-08-05,"Des Moines Police Department, Iowa, United States",1.01010101010101,41.5861,-93.6155
2014-08-05,"Chautauqua Park, Iowa, United States",0.0,41.0089,-91.1326
2014-08-05,"Mercy Medical Center, Iowa, United States",0.0,41.5988,-93.6233
2014-08-05,"Peosta, Iowa, United States",0.869565217391304,42.4506,-90.8504
2014-08-05,"Dubuque County, Iowa, United States",0.27090700628790965,42.4833,-90.8668
2014-08-05,"West Des Moines, Iowa, United States",1.69491525423729,41.5772,-93.7113
2014-08-05,"Estherville, Iowa, United States",2.37467018469657,43.4016,-94.8328
2014-08-05,"Mason City, Iowa, United States",0.16901408450704225,43.1536,-93.201
2014-08-05,"Sioux City, Iowa, United States",0.037093927377638176,42.5,-96.4003
2014-08-05,"Burlington, Iowa, United States",1.0062893081761,40.8075,-91.1129
2014-08-05,"Holy Family Catholic Church, Iowa, United States",0.217391304347826,43.1022,-94.6803
2014-08-05,"Johnson County, Iowa, United States",0.13566306208589812,41.6667,-91.5335
2014-08-05,"Old Capitol Museum, Iowa, United States",1.7777777777777768,41.6614,-91.536
2014-08-05,"Shenandoah, Iowa, United States",0.70194384449244,40.7656,-95.3722
2014-08-05,"Altoona, Iowa, United States",1.75746924428823,41.6442,-93.4647
2014-08-05,"Fort Dodge, Iowa, United States",0.40983606557377056,42.4975,-94.168
2014-08-05,"Pottawattamie County, Iowa, United States",0.06648936170212776,41.3333,-95.5336
2014-08-05,"First United Methodist Church, Iowa, United States",0.8291873963515768,42.7897,-96.1653
2014-08-05,"Grove Cemetery, Iowa, United States",1.257861635220125,40.6258,-95.1414
2014-08-05,"Linn County, Iowa, United States",1.60427807486631,42.0667,-91.6002
2014-08-05,"City Of Davenport, Iowa, United States",2.71317829457364,41.5558,-90.6052
2014-08-05,"Muscatine, Iowa, United States",0.31789835217820867,41.4245,-91.0432
2014-08-04,"Shenandoah, Iowa, United States",0.33727471293821887,40.7656,-95.3722
2014-08-04,"Okoboji, Iowa, United States",0.1127529939071363,43.3864,-95.1483
2014-08-04,"Tama County, Iowa, United States",0.2594033722438393,42.0667,-92.5335
2014-08-04,"Ida County, Iowa, United States",2.82828282828283,42.3833,-95.5169
2014-08-04,"Community Field, Iowa, United States",1.16279069767442,40.8273,-91.1357
2014-08-04,"Fairport, Iowa, United States",1.59574468085106,41.4359,-90.9046
2014-08-04,"Storm Lake, Iowa, United States",0.144815794210499,42.6411,-95.2097
2014-08-04,"Le Mars, Iowa, United States",0.8658008658008665,42.7942,-96.1656
2014-08-04,"Indianola, Iowa, United States",2.4024024024024,41.358,-93.5574
2014-08-04,"Des Moines, Iowa, United States",0.049641244621897694,41.6005,-93.6091
2014-08-04,"Traer, Iowa, United States",0.1552192471866512,42.1936,-92.4655
2014-08-04,"Fort Madison, Iowa, United States",0.023120944710985993,40.6298,-91.3151
2014-08-04,"Camanche, Iowa, United States",2.72727272727273,41.7881,-90.2562
2014-08-04,"Emmet County, Iowa, United States",0.402298850574712,43.3744,-94.6669
2014-08-04,"Jasper County, Iowa, United States",2.511415525114155,41.6833,-93.0502
2014-08-04,"Marion County, Iowa, United States",0.64635272391505,41.3333,-93.1002
2014-08-04,"Pottawattamie County, Iowa, United States",0.889101762978093,41.3333,-95.5336
2014-08-04,"Scott County, Iowa, United States",0.20050104841400712,41.6334,-90.6335
2014-08-04,"Sioux City, Iowa, United States",0.01601473801036935,42.5,-96.4003
2014-08-04,"Ronald Mcdonald House, Iowa, United States",2.0671834625323,41.6631,-91.5563
2014-08-04,"Mercy Medical Center, Iowa, United States",0.0,41.5988,-93.6233
2014-08-04,"Mason City, Iowa, United States",0.5771380900084147,43.1536,-93.201
2014-08-04,"North Liberty, Iowa, United States",1.6111625038544568,41.7492,-91.5979
2014-08-04,"Beloit, Iowa, United States",0.190839694656489,43.2814,-96.5748
2014-08-04,"Pleasant Hill, Iowa, United States",1.46750524109015,41.5839,-93.5199
2014-08-04,"Dubuque County, Iowa, United States",0.2525252525252533,42.4833,-90.8668
2014-08-04,"Princeton, Iowa, United States",1.068883610451305,41.6748,-90.3404
2014-08-04,"Dallas Center, Iowa, United States",1.8058690744921002,41.6844,-93.9611
2014-08-04,"Red Oak, Iowa, United States",0.8226691042047524,41.0097,-95.2255
2014-08-04,"Page County, Iowa, United States",0.1455180442374855,40.7505,-95.1669
2014-08-04,"Linn County, Iowa, United States",0.0,42.0667,-91.6002
2014-08-04,"Center Junction, Iowa, United States",2.9045643153527,42.1161,-91.0871
2014-08-04,"Johnson County, Iowa, United States",4.93685419058553,41.6667,-91.5335
2014-08-04,"Muscatine, Iowa, United States",0.36474407036439344,41.4245,-91.0432
2014-08-04,"Council Bluffs, Iowa, United States",0.784387946081215,41.2619,-95.8608
2014-08-04,"University Park, Iowa, United States",0.14705882352941185,41.287,-92.6185
2014-08-04,"Muscatine County, Iowa, United States",0.0,41.4667,-91.1335
2014-08-04,"Grand Junction, Iowa, United States",0.955414012738855,42.0316,-94.2408
2014-08-04,"Fort Madison Police Department, Iowa, United States",0.0,40.6328,-91.3121
2014-08-04,"Tama County Sheriff Office, Iowa, United States",0.389105058365759,41.9958,-92.5796
2014-08-04,"Fort Madison Community Hospital, Iowa, United States",0.0,40.6257,-91.3849
2014-08-04,"Burlington, Iowa, United States",1.16279069767442,40.8075,-91.1129
2014-08-04,"Epworth Fire Department, Iowa, United States",0.5050505050505067,42.447,-90.9317
2014-08-04,"Dover, Iowa, United States",0.24703557312253074,41.8481,-92.2932
2014-08-04,"Epworth Police Department, Iowa, United States",1.51515151515152,42.4444,-90.9296
2014-08-04,"Buena Vista County, Iowa, United States",0.0,42.7333,-95.1503
2014-08-04,"West Point, Iowa, United States",0.0,40.7167,-91.4502
2014-08-04,"Clear Lake, Iowa, United States",0.17428690686510426,43.138,-93.3794
2014-08-04,"Cedar Rapids, Iowa, United States",0.0,42.0083,-91.6441
2014-08-03,"Sioux City, Iowa, United States",0.011502185415228886,42.5,-96.4003
2014-08-03,"Mount Vernon, Iowa, United States",2.363367799113735,41.922,-91.4168
2014-08-03,"Mason City Fire Department, Iowa, United States",1.94805194805195,43.1477,-93.2069
2014-08-03,"Cedar Rapids, Iowa, United States",0.6236298091306164,42.0083,-91.6441
2014-08-03,"Fort Madison Police Department, Iowa, United States",0.0,40.6328,-91.3121
2014-08-03,"Council Bluffs, Iowa, United States",1.16279069767442,41.2619,-95.8608
2014-08-03,"Fort Madison Community Hospital, Iowa, United States",0.03131221953968876,40.6257,-91.3849
2014-08-03,"Clarinda Regional Health Center, Iowa, United States",1.83447307585238,40.7298,-95.04
2014-08-03,"Dubuque County, Iowa, United States",0.16972659681308833,42.4833,-90.8668
2014-08-03,"Urbandale, Iowa, United States",0.0,41.6267,-93.7122
2014-08-03,"Mason City, Iowa, United States",0.1914670546891956,43.1536,-93.201
2014-08-03,"Sioux County, Iowa, United States",1.239669421487605,42.7333,-96.2336
2014-08-03,"Page County Sheriffs Office, Iowa, United States",0.6993006993007,40.7411,-95.0364
2014-08-03,"Orange City, Iowa, United States",0.0,43.0072,-96.0583
2014-08-03,"Burlington, Iowa, United States",0.62111801242236,40.8075,-91.1129
2014-08-03,"Benton County Jail, Iowa, United States",1.33333333333333,42.169,-92.0238
2014-08-03,"Benton Community High School, Iowa, United States",2.1978021978022,42.0125,-92.0869
2014-08-03,"Fort Madison, Iowa, United States",0.0022081782088141646,40.6298,-91.3151
2014-08-03,"Black Hawk County, Iowa, United States",0.7592190889370924,42.4667,-92.3168
2014-08-03,"Woodbury County, Iowa, United States",0.12736014264335968,42.3833,-96.0336
2014-08-03,"Sergeant Bluff, Iowa, United States",4.66439135381115,42.4039,-96.3586
2014-08-03,"Mitchell County, Iowa, United States",2.47933884297521,43.35,-92.7835
2014-08-03,"Jackson County, Iowa, United States",0.0,42.1667,-90.5835
2014-08-03,"Clear Lake, Iowa, United States",0.414389799635701,43.138,-93.3794
2014-08-03,"Kirkwood Community College, Iowa, United States",1.2345679012345667,41.9122,-91.6535
2014-08-03,"Shenandoah, Iowa, United States",0.6416112623009183,40.7656,-95.3722
2014-08-03,"Little Sioux River, Iowa, United States",1.030927835051545,41.8036,-96.067
2014-08-03,"Cerro Gordo County, Iowa, United States",0.546448087431694,43.0833,-93.2669
2014-08-03,"University Of Dubuque, Iowa, United States",1.2944983818770235,42.4981,-90.6932
2014-08-03,"Centerville, Iowa, United States",4.84988452655889,40.7342,-92.8741
2014-08-03,"Lewis Central High School, Iowa, United States",0.58139534883721,41.2206,-95.8186
2014-08-03,"Monticello, Iowa, United States",0.8007117437722424,42.2383,-91.1871
2014-08-03,"Rock Rapids, Iowa, United States",2.43161094224924,43.4272,-96.1759
2014-08-03,"Des Moines, Iowa, United States",0.07828994760001452,41.6005,-93.6091
2014-08-03,"First Presbyterian Church, Iowa, United States",1.94805194805195,41.5364,-90.5701
2014-08-03,"Tipton High School, Iowa, United States",1.0989010989011,41.7709,-91.1377
2014-08-03,"Edgewood, Iowa, United States",0.9765625,42.6444,-91.4013
2014-08-03,"Cedar Falls, Iowa, United States",0.8075370121130567,42.5278,-92.4455
2014-08-03,"Spirit Lake, Iowa, United States",1.94871794871795,43.4222,-95.1022
2014-08-03,"Red Oak, Iowa, United States",0.5275493839195424,41.0097,-95.2255
2014-08-03,"Mercy Medical Center, Iowa, United States",0.0,41.5988,-93.6233
2014-08-03,"Wheatland, Iowa, United States",2.07006369426752,41.8317,-90.8382
2014-08-03,"Marshalltown, Iowa, United States",0.4870129870129875,42.0494,-92.908
2014-08-03,"Pleasant Valley High School, Iowa, United States",3.11750599520384,41.5525,-90.4712
2014-08-03,"Storm Lake, Iowa, United States",0.12934146687317735,42.6411,-95.2097
2014-08-03,"Fairport, Iowa, United States",2.20371201424386,41.4359,-90.9046
2014-08-02,"Sabula, Iowa, United States",2.65486725663717,42.0711,-90.174
2014-08-02,"Cedar Valley, Iowa, United States",0.6761325219743066,41.7264,-91.2466
2014-08-02,"Eagle Point Park, Iowa, United States",0.0,41.9036,-90.1793
2014-08-02,"Lake Park, Iowa, United States",3.4759358288770046,43.4555,-95.3208
2014-08-02,"Des Moines, Iowa, United States",0.0621405003691114,41.6005,-93.6091
2014-08-02,"Johnson County, Iowa, United States",1.28022759601707,41.6667,-91.5335
2014-08-02,"Charles City, Iowa, United States",2.32558139534884,43.0664,-92.6724
2014-08-02,"Waterloo Police Department, Iowa, United States",0.0,42.4992,-92.3318
2014-08-02,"Music Hall, Iowa, United States",2.07736389684814,42.0247,-93.6477
2014-08-02,"New Hampton, Iowa, United States",2.02839756592292,43.0591,-92.3177
2014-08-02,"Mahaska County, Iowa, United States",1.182965299684545,41.3333,-92.6502
2014-08-02,"Altoona, Iowa, United States",2.95031055900621,41.6442,-93.4647
2014-08-02,"Page County, Iowa, United States",0.40160642570281,40.7505,-95.1669
2014-08-02,"Webster County, Iowa, United States",0.5823627287853576,42.4333,-94.1669
2014-08-02,"Polk County, Iowa, United States",0.14090177133655388,41.6833,-93.5835
2014-08-02,"Ida County, Iowa, United States",1.463790446841295,42.3833,-95.5169
2014-08-02,"Clarinda Regional Health Center, Iowa, United States",1.7929080695038102,40.7298,-95.04
2014-08-02,"Benton County, Iowa, United States",3.125,42.0667,-92.0668
2014-08-02,"Forest Cemetery, Iowa, United States",1.182965299684545,41.3058,-92.6335
2014-08-02,"Marshall County, Iowa, United States",0.5214541120381412,42.0333,-93.0008
2014-08-02,"Black Hawk County, Iowa, United States",2.02839756592292,42.4667,-92.3168
2014-08-02,"Wayne County Sheriff Office, Iowa, United States",0.4699927693420099,40.7583,-93.3169
2014-08-02,"Story City, Iowa, United States",2.799583667736755,42.1872,-93.5958
2014-08-02,"Lyon County, Iowa, United States",0.14363007585899154,43.3833,-96.2509
2014-08-02,"Cedar Rapids, Iowa, United States",0.312862172699582,42.0083,-91.6441
2014-08-02,"Ottumwa, Iowa, United States",0.0,41.02,-92.4113
2014-08-02,"Clear Creek, Iowa, United States",2.8,43.4336,-91.4087
2014-08-02,"Council Bluffs, Iowa, United States",0.39657386252944443,41.2619,-95.8608
2014-08-02,"Le Mars, Iowa, United States",0.16194331983805663,42.7942,-96.1656
2014-08-02,"Oskaloosa, Iowa, United States",0.5914826498422725,41.2964,-92.6444
2014-08-02,"Sac City, Iowa, United States",1.55763239875389,42.4222,-94.9897
2014-08-02,"Sioux City, Iowa, United States",0.1132164694471528,42.5,-96.4003
2014-08-02,"Rockwell City, Iowa, United States",2.32945091514143,42.3953,-94.6339
2014-08-02,"Dubuque County, Iowa, United States",0.24630541871921202,42.4833,-90.8668
2014-08-02,"Centerville, Iowa, United States",2.810650887573965,40.7342,-92.8741
2014-08-02,"Ida Grove, Iowa, United States",2.92758089368259,42.345,-95.4717
2014-08-02,"Marshalltown, Iowa, United States",4.08163265306122,42.0494,-92.908
2014-08-02,"Storm Lake, Iowa, United States",0.28684949669405607,42.6411,-95.2097
2014-08-02,"Mason City, Iowa, United States",1.0188215282785151,43.1536,-93.201
2014-08-02,"Cedar Falls, Iowa, United States",0.016397672240327336,42.5278,-92.4455
2014-08-02,"Camanche, Iowa, United States",0.6637168141592925,41.7881,-90.2562
2014-08-02,"Mitchell County, Iowa, United States",2.40506329113924,43.35,-92.7835
2014-08-02,"Oakdale, Iowa, United States",0.3327787021630614,41.7064,-91.603
2014-08-02,"Emmetsburg, Iowa, United States",2.32974910394265,43.1127,-94.683
2014-08-02,"Musser Public Library, Iowa, United States",6.36363636363636,41.4222,-91.0474
2014-08-02,"City Of Bettendorf, Iowa, United States",0.5597014925373125,41.5655,-90.4764
2014-08-02,"Greenwood Cemetery, Iowa, United States",1.0606060606060599,41.6869,-94.3377
2014-08-02,"Tama County Sheriff Office, Iowa, United States",0.26455026455026465,41.9958,-92.5796
2014-08-02,"Warren County, Iowa, United States",0.68181818181818,41.3333,-93.5502
2014-08-02,"Estherville, Iowa, United States",0.41325276222636875,43.4016,-94.8328
2014-08-02,"University Of Dubuque, Iowa, United States",1.2944983818770235,42.4981,-90.6932
2014-08-02,"Allen Memorial Hospital, Iowa, United States",0.2590673575129535,42.5268,-92.3393
2014-08-02,"Shenandoah, Iowa, United States",0.8964540347519062,40.7656,-95.3722
2014-08-02,"Amana, Iowa, United States",2.7999999999999994,41.8,-91.8707
2014-08-02,"Friendship Home, Iowa, United States",8.60215053763441,41.725,-94.9292
2014-08-02,"Buena Vista County, Iowa, United States",0.11363636363636333,42.7333,-95.1503
2014-08-02,"Wayne County, Iowa, United States",0.281995661605206,40.7506,-93.3002
2014-08-01,"Clinton School, Iowa, United States",1.0948325008859716,40.9994,-93.4605
2014-08-01,"Greene County, Iowa, United States",2.04379562043796,42.0333,-94.4002
2014-08-01,"Oakdale, Iowa, United States",2.84900284900285,41.7064,-91.603
2014-08-01,"Glenwood, Iowa, United States",0.11159042880077097,41.0469,-95.7425
2014-08-01,"Woodbury County, Iowa, United States",2.04755614266843,42.3833,-96.0336
2014-08-01,"Council Bluffs, Iowa, United States",0.5061329682920249,41.2619,-95.8608
2014-08-01,"Polk County, Iowa, United States",0.07979917375815822,41.6833,-93.5835
2014-08-01,"Jesup, Iowa, United States",-4.89130434782608,42.4755,-92.0638
2014-08-01,"Plymouth County, Iowa, United States",0.03488852425980067,42.7333,-96.2336
2014-08-01,"Winneshiek County, Iowa, United States",1.9230769230769247,43.2833,-91.8502
2014-08-01,"West Branch, Iowa, United States",0.639658848614073,41.6714,-91.3465
2014-08-01,"Mason City, Iowa, United States",1.622535655842146,43.1536,-93.201
2014-08-01,"Washington Elementary School, Iowa, United States",1.67832167832168,43.1586,-93.203
2014-08-01,"West Des Moines, Iowa, United States",0.1806684733514,41.5772,-93.7113
2014-08-01,"Buena Vista County, Iowa, United States",0.0,42.7333,-95.1503
2014-08-01,"Sioux City, Iowa, United States",0.025491704325026333,42.5,-96.4003
2014-08-01,"Des Moines, Iowa, United States",0.06091997673067335,41.6005,-93.6091
2014-08-01,"Fremont County, Iowa, United States",2.04081632653061,40.7506,-95.6003
2014-08-01,"Mahaska County, Iowa, United States",1.182965299684545,41.3333,-92.6502
2014-08-01,"Wapello County, Iowa, United States",0.859598853868195,41.0333,-92.4169
2014-08-01,"Forest Cemetery, Iowa, United States",1.182965299684545,41.3058,-92.6335
2014-08-01,"Okoboji, Iowa, United States",0.41371158392435,43.3864,-95.1483
2014-08-01,"Cedar Rapids, Iowa, United States",0.16293931862032973,42.0083,-91.6441
2014-08-01,"Linn County, Iowa, United States",0.10040160642570276,42.0667,-91.6002
2014-08-01,"Benton County, Iowa, United States",1.13636363636364,42.0667,-92.0668
2014-08-01,"Spirit Lake, Iowa, United States",1.90571715145436,43.4222,-95.1022
2014-08-01,"Ossian City Park, Iowa, United States",1.923076923076925,43.1464,-91.7682
2014-08-01,"Johnson County, Iowa, United States",2.0,41.6667,-91.5335
2014-08-01,"Deerfield, Iowa, United States",2.34375,43.1636,-92.4955
2014-08-01,"Cedar Falls, Iowa, United States",0.15045836029952636,42.5278,-92.4455
2014-08-01,"Morningside College, Iowa, United States",2.44233378561737,42.4747,-96.3595
2014-08-01,"New Hampton, Iowa, United States",0.687285223367698,43.0591,-92.3177
2014-08-01,"Urbandale, Iowa, United States",0.4177357223952208,41.6267,-93.7122
2014-08-01,"Jackson County, Iowa, United States",1.6548463356974,42.1667,-90.5835
2014-08-01,"Oakdale Cemetery, Iowa, United States",2.25225225225225,41.5461,-90.549
2014-08-01,"Hardin County, Iowa, United States",1.38888888888889,42.3833,-93.2508
2014-08-01,"Scott County, Iowa, United States",3.36538461538462,41.6334,-90.6335
2014-08-01,"Oskaloosa, Iowa, United States",0.29185968493161013,41.2964,-92.6444
2014-08-01,"Le Mars, Iowa, United States",0.2958579881656805,42.7942,-96.1656
2014-08-01,"Linn County Jail, Iowa, United States",0.408163265306122,41.9746,-91.6693
2014-08-01,"Traer, Iowa, United States",0.3695491500369533,42.1936,-92.4655
2014-08-01,"Morning Sun, Iowa, United States",1.6460905349794235,41.0961,-91.2577
2014-08-01,"Tama County, Iowa, United States",0.1847745750184767,42.0667,-92.5335
2014-08-01,"Kirkwood Community College, Iowa, United States",2.01005025125628,41.9122,-91.6535
2014-08-01,"Estherville, Iowa, United States",0.024437927663734146,43.4016,-94.8328
2014-08-01,"Drake University, Iowa, United States",0.731364275668074,41.6014,-93.6519
2014-08-01,"Muscatine, Iowa, United States",0.6158663037490676,41.4245,-91.0432
2014-08-01,"Parkersburg, Iowa, United States",0.48846675712347387,42.5775,-92.7869
2014-08-01,"Mitchell County, Iowa, United States",1.68269230769231,43.35,-92.7835
2014-08-01,"Hitchcock House, Iowa, United States",1.5940488841657803,41.3042,-95.1031
2014-08-01,"Marshalltown, Iowa, United States",1.21894045944679,42.0494,-92.908
2014-08-01,"Storm Lake, Iowa, United States",0.018539117538005197,42.6411,-95.2097
2014-07-31,"Deerfield, Iowa, United States",3.11059907834101,43.1636,-92.4955
2014-07-31,"Riverton, Iowa, United States",0.12099213551119176,40.6869,-95.5686
2014-07-31,"Clear Lake, Iowa, United States",1.50384441429218,43.138,-93.3794
2014-07-31,"Fort Dodge, Iowa, United States",3.02491103202847,42.4975,-94.168
2014-07-31,"Council Bluffs, Iowa, United States",3.59281437125748,41.2619,-95.8608
2014-07-31,"Cedar Falls, Iowa, United States",0.0,42.5278,-92.4455
2014-07-31,"Worth County, Iowa, United States",0.30874785591766807,43.3833,-93.2669
2014-07-31,"Plymouth County, Iowa, United States",0.08261673785290195,42.7333,-96.2336
2014-07-31,"Coralville, Iowa, United States",1.459034792368125,41.6764,-91.5804
2014-07-31,"Glenwood, Iowa, United States",0.39463460516092114,41.0469,-95.7425
2014-07-31,"Mount Vernon, Iowa, United States",0.6782945736434101,41.922,-91.4168
2014-07-31,"Las Americas United Methodist Church, Iowa, United States",0.0,41.6005,-93.6091
2014-07-31,"Mount Pleasant, Iowa, United States",0.3702336659949666,40.9636,-91.5579
2014-07-31,"Burlington, Iowa, United States",2.03045685279188,40.8075,-91.1129
2014-07-31,"Cedar County, Iowa, United States",0.349513568237881,41.7667,-91.1335
2014-07-31,"Des Moines, Iowa, United States",0.025517588855210147,41.6005,-93.6091
2014-07-31,"Herbert Hoover National Historic Site, Iowa, United States",1.420454545454545,41.6692,-91.3477
2014-07-31,"Springville, Iowa, United States",0.0,42.0594,-91.4427
2014-07-31,"Washingtonhouse, Iowa, United States",2.12784927854404,41.3639,-93.5622
2014-07-31,"United Methodist, Iowa, United States",1.63776493256262,41.7555,-94.0322
2014-07-31,"Blue Grass, Iowa, United States",0.3311258278145695,41.5089,-90.766
2014-07-31,"Sioux City, Iowa, United States",0.06869902927111811,42.5,-96.4003
2014-07-31,"Clinton County, Iowa, United States",0.32022968197879875,41.8834,-90.5501
2014-07-31,"Emmetsburg, Iowa, United States",0.27604180084557756,43.1127,-94.683
2014-07-31,"Great River Medical Center, Iowa, United States",1.5748031496063,40.8096,-91.173
2014-07-31,"West Branch, Iowa, United States",0.05655063251365674,41.6714,-91.3465
2014-07-31,"Drake University, Iowa, United States",0.297619047619048,41.6014,-93.6519
2014-07-31,"Le Mars, Iowa, United States",0.5192878338278925,42.7942,-96.1656
2014-07-31,"Centerville, Iowa, United States",3.5519125683060095,40.7342,-92.8741
2014-07-31,"Madison County, Iowa, United States",0.1756134494950625,41.3333,-94.0169
2014-07-31,"Algona, Iowa, United States",0.3512880562060891,43.07,-94.233
2014-07-31,"Eagle Point, Iowa, United States",0.19218807177926125,42.5347,-90.6446
2014-07-31,"Ankeny Police Department, Iowa, United States",2.18446601941748,41.73,-93.6052
2014-07-31,"Spirit Lake, Iowa, United States",1.88213140428071,43.4222,-95.1022
2014-07-31,"Winterset, Iowa, United States",4.17265493127562,41.3308,-94.0138
2014-07-31,"Cedar Rapids, Iowa, United States",0.12248097662752115,42.0083,-91.6441
2014-07-31,"Ames Police Department, Iowa, United States",1.0727969348658999,42.0264,-93.6172
2014-07-31,"Mapleton, Iowa, United States",0.43103448275862005,42.1658,-95.7931
2014-07-31,"Lee County, Iowa, United States",5.28735632183908,40.65,-91.4835
2014-07-31,"English River, Iowa, United States",1.514360313315925,41.4875,-91.5018
2014-07-31,"Estherville, Iowa, United States",0.7025761124121781,43.4016,-94.8328
2014-07-31,"Coralville Fire Department, Iowa, United States",0.4411764705882355,41.6775,-91.5829
2014-07-31,"Urbana, Iowa, United States",1.616161616161616,42.2242,-91.8743
2014-07-31,"Beloit, Iowa, United States",0.027949743089202107,43.2814,-96.5748
2014-07-31,"Scott County, Iowa, United States",0.13893973177143992,41.6334,-90.6335
2014-07-31,"Johnson County, Iowa, United States",1.537406255716115,41.6667,-91.5335
2014-07-31,"Storm Lake, Iowa, United States",0.321931589537224,42.6411,-95.2097
2014-07-31,"Muscatine, Iowa, United States",3.02872062663185,41.4245,-91.0432
2014-07-31,"Lincoln High School, Iowa, United States",0.320855614973262,41.5622,-93.6266
2014-07-31,"West Des Moines, Iowa, United States",0.25275432480171117,41.5772,-93.7113
2014-07-31,"Big Creek, Iowa, United States",1.1737089201877935,42.3836,-95.8575
2014-07-31,"Dubuque County, Iowa, United States",0.0,42.4833,-90.8668
2014-07-31,"Polk County, Iowa, United States",0.08947187441726598,41.6833,-93.5835
2014-07-30,"Storm Lake, Iowa, United States",0.265151515151515,42.6411,-95.2097
2014-07-30,"Coralville, Iowa, United States",1.6357177330163533,41.6764,-91.5804
2014-07-30,"Buchanan County, Iowa, United States",0.2242152466367715,42.4667,-91.8502
2014-07-30,"Johnson County, Iowa, United States",1.21703853955375,41.6667,-91.5335
2014-07-30,"Clear Lake, Iowa, United States",0.16222062004325905,43.138,-93.3794
2014-07-30,"Story County, Iowa, United States",0.3494534447561868,42.0333,-93.4669
2014-07-30,"Des Moines County, Iowa, United States",0.845070422535211,40.9167,-91.1835
2014-07-30,"Cedar Rapids, Iowa, United States",0.3546689491337187,42.0083,-91.6441
2014-07-30,"Bremer County, Iowa, United States",0.10638297872340421,42.7666,-92.3168
2014-07-30,"Quimby Fire Department, Iowa, United States",0.44150110375275997,42.6293,-95.6417
2014-07-30,"West Des Moines, Iowa, United States",1.83431952662722,41.5772,-93.7113
2014-07-30,"Lincoln High School, Iowa, United States",0.3208556149732619,41.5622,-93.6266
2014-07-30,"Ottumwa, Iowa, United States",6.28930817610063,41.02,-92.4113
2014-07-30,"West Branch, Iowa, United States",0.3218289162150666,41.6714,-91.3465
2014-07-30,"Cherokee County, Iowa, United States",0.44150110375275997,42.7333,-95.617
2014-07-30,"Ankeny Police Department, Iowa, United States",0.96774193548387,41.73,-93.6052
2014-07-30,"Union County, Iowa, United States",0.0,41.0333,-94.2508
2014-07-30,"Burlington, Iowa, United States",0.12569152034676515,40.8075,-91.1129
2014-07-30,"Forest City, Iowa, United States",0.8285621188847004,43.2625,-93.6372
2014-07-30,"Southbridge Mall, Iowa, United States",3.07262569832402,43.1514,-93.2016
2014-07-30,"Terrace Hill, Iowa, United States",2.05992509363296,41.5833,-93.6491
2014-07-30,"Muscatine, Iowa, United States",1.41955835962145,41.4245,-91.0432
2014-07-30,"City Of Bellevue, Iowa, United States",0.5149330587023675,42.2593,-90.4296
2014-07-30,"Clinton County, Iowa, United States",0.09210757420781271,41.8834,-90.5501
2014-07-30,"North Liberty, Iowa, United States",3.28879753340185,41.7492,-91.5979
2014-07-30,"Henry County, Iowa, United States",1.96078431372549,40.9834,-91.5502
2014-07-30,"Fort Madison, Iowa, United States",0.08211351389180496,40.6298,-91.3151
2014-07-30,"Mitchell County, Iowa, United States",0.13332564146940243,43.35,-92.7835
2014-07-30,"Des Moines, Iowa, United States",0.049184865832814145,41.6005,-93.6091
2014-07-30,"Des Moines Police Department, Iowa, United States",0.5575117370892017,41.5861,-93.6155
2014-07-30,"Benton County, Iowa, United States",2.88659793814433,42.0667,-92.0668
2014-07-30,"Beloit, Iowa, United States",0.03306096677428892,43.2814,-96.5748
2014-07-30,"Jasper County, Iowa, United States",5.31400966183575,41.6833,-93.0502
2014-07-30,"Montgomery County, Iowa, United States",3.18772136953955,41.0333,-95.1669
2014-07-30,"Linn County, Iowa, United States",0.5594221030421529,42.0667,-91.6002
2014-07-30,"Cresco, Iowa, United States",0.442477876106195,43.3814,-92.1141
2014-07-30,"Dubuque County, Iowa, United States",0.0,42.4833,-90.8668
2014-07-30,"Lee County, Iowa, United States",3.08988764044944,40.65,-91.4835
2014-07-30,"Council Bluffs, Iowa, United States",3.59281437125748,41.2619,-95.8608
2014-07-30,"Drake University, Iowa, United States",0.8034117168367145,41.6014,-93.6519
2014-07-30,"Musser Public Library, Iowa, United States",0.9868421052631575,41.4222,-91.0474
2014-07-30,"Black Hawk County, Iowa, United States",0.07473841554559049,42.4667,-92.3168
2014-07-30,"Eagle Point Park, Iowa, United States",0.432900432900433,41.9036,-90.1793
2014-07-30,"Henry County Health Center, Iowa, United States",3.57142857142857,40.9626,-91.5595
2014-07-30,"Mason City, Iowa, United States",1.012108610567516,43.1536,-93.201
2014-07-30,"Oskaloosa, Iowa, United States",1.66270783847981,41.2964,-92.6444
2014-07-30,"Desmoines, Iowa, United States",0.1666666666666665,41.6005,-93.6091
2014-07-30,"Urbandale, Iowa, United States",0.6880733944954125,41.6267,-93.7122
2014-07-30,"Polk County, Iowa, United States",0.31023784901758,41.6833,-93.5835
2014-07-30,"Sioux City, Iowa, United States",0.05936516798201016,42.5,-96.4003
2014-07-30,"Howard County, Iowa, United States",0.14749262536873167,43.35,-92.3168
2014-07-29,"Fort Dodge, Iowa, United States",0.3690036900369005,42.4975,-94.168
2014-07-29,"Tama County, Iowa, United States",0.10725973934758821,42.0667,-92.5335
2014-07-29,"Benton County, Iowa, United States",2.83018867924528,42.0667,-92.0668
2014-07-29,"Urbandale, Iowa, United States",0.17282555262484234,41.6267,-93.7122
2014-07-29,"Postville, Iowa, United States",0.4335260115606935,43.0847,-91.5682
2014-07-29,"Music Hall, Iowa, United States",1.858736059479555,42.0247,-93.6477
2014-07-29,"Central College, Iowa, United States",0.2923976608187133,41.4011,-92.9205
2014-07-29,"Boone County, Iowa, United States",1.1061946902654867,42.0333,-93.9336
2014-07-29,"Oskaloosa, Iowa, United States",3.75,41.2964,-92.6444
2014-07-29,"Coralville, Iowa, United States",0.15527950310559,41.6764,-91.5804
2014-07-29,"Mitchell County, Iowa, United States",0.10533707865168544,43.35,-92.7835
2014-07-29,"Garwin, Iowa, United States",0.0656167979002625,42.0936,-92.6758
2014-07-29,"Lee County, Iowa, United States",0.39322602458201245,40.65,-91.4835
2014-07-29,"Council Bluffs, Iowa, United States",0.7182087029995766,41.2619,-95.8608
2014-07-29,"Des Moines Police Department, Iowa, United States",0.5455551380811314,41.5861,-93.6155
2014-07-29,"Cedar Rapids, Iowa, United States",0.08690562219125063,42.0083,-91.6441
2014-07-29,"Washington Elementary School, Iowa, United States",1.6643550624133148,43.1586,-93.203
2014-07-29,"Muscatine, Iowa, United States",2.16216216216216,41.4245,-91.0432
2014-07-29,"Johnson County, Iowa, United States",0.93403385872738,41.6667,-91.5335
2014-07-29,"Burlington, Iowa, United States",0.81383519837233,40.8075,-91.1129
2014-07-29,"Emmetsburg, Iowa, United States",0.13947001394700134,43.1127,-94.683
2014-07-29,"Sioux City, Iowa, United States",0.09884774684071264,42.5,-96.4003
2014-07-29,"West Bend, Iowa, United States",0.70921985815603,42.9569,-94.4411
2014-07-29,"Cedar Falls, Iowa, United States",0.6858281599834367,42.5278,-92.4455
2014-07-29,"West Branch, Iowa, United States",0.05658399080336735,41.6714,-91.3465
2014-07-29,"Palo Alto County, Iowa, United States",0.06973500697350067,43.0833,-94.6669
2014-07-29,"Salisbury House, Iowa, United States",0.4994421512128478,41.5792,-93.6716
2014-07-29,"Union County Sheriff Office, Iowa, United States",0.0,41.06,-94.3619
2014-07-29,"Webster County Jail, Iowa, United States",0.24600246002460027,42.5042,-94.188
2014-07-29,"Polk County, Iowa, United States",0.1849283402681457,41.6833,-93.5835
2014-07-29,"Clinton County, Iowa, United States",2.63157894736842,41.8834,-90.5501
2014-07-29,"Murphy Park, Iowa, United States",1.2317167051578133,41.6242,-93.7063
2014-07-29,"Worth County, Iowa, United States",0.04142386077382641,43.3833,-93.2669
2014-07-29,"Storm Lake, Iowa, United States",0.17564734545866678,42.6411,-95.2097
2014-07-29,"Brooklyn, Iowa, United States",-2.6943005181347153,41.7336,-92.4455
2014-07-29,"Union Park, Iowa, United States",1.1224344816005976,41.613,-93.6097
2014-07-29,"Louisa County, Iowa, United States",1.21951219512195,41.2334,-91.2668
2014-07-29,"Sioux City Public Museum, Iowa, United States",0.25302025618506435,42.5208,-96.4023
2014-07-29,"Henry County, Iowa, United States",0.8503401360544249,40.9834,-91.5502
2014-07-29,"City Of Alta, Iowa, United States",2.4509803921568656,42.6719,-95.3046
2014-07-29,"Anderson Conservation Area, Iowa, United States",0.0,41.0333,-95.1836
2014-07-29,"Ames Police Department, Iowa, United States",0.0,42.0264,-93.6172
2014-07-29,"Iowa City Police Department, Iowa, United States",1.31233595800525,41.6603,-91.5293
2014-07-29,"Loras College, Iowa, United States",1.079694944179763,42.5042,-90.6815
2014-07-29,"Des Moines, Iowa, United States",0.03630985859924275,41.6005,-93.6091
2014-07-29,"Union County, Iowa, United States",0.23741690408357116,41.0333,-94.2508
2014-07-29,"Beloit, Iowa, United States",0.0,43.2814,-96.5748
2014-07-29,"Drake University, Iowa, United States",0.5777747099911857,41.6014,-93.6519
2014-07-29,"Washingtonhouse, Iowa, United States",1.141192013662895,41.3639,-93.5622
2014-07-29,"Linn County, Iowa, United States",0.01509248035821032,42.0667,-91.6002
2014-07-29,"Pleasant Hill, Iowa, United States",2.90322580645161,41.5839,-93.5199
2014-07-29,"Bowen Science Building, Iowa, United States",2.35191637630662,41.6611,-91.5446
2014-07-29,"Mason City, Iowa, United States",0.739030023094688,43.1536,-93.201
2014-07-29,"Fort Dodge Fire Department, Iowa, United States",0.3649635036496367,42.5059,-94.1772
2014-07-29,"Immaculate Conception Church, Iowa, United States",3.25865580448065,41.9447,-92.9588
2014-07-29,"Ankeny Police Department, Iowa, United States",1.29449838187702,41.73,-93.6052
2014-07-29,"Polishville Cemetery, Iowa, United States",3.25865580448065,41.1117,-91.8132
2014-07-28,"Polk County, Iowa, United States",0.305913265658788,41.6833,-93.5835
2014-07-28,"Lee County, Iowa, United States",1.8957345971564,40.65,-91.4835
2014-07-28,"Jesup, Iowa, United States",-5.29172320217096,42.4755,-92.0638
2014-07-28,"Earlville, Iowa, United States",0.67476383265857,42.4817,-91.2724
2014-07-28,"Rockwell City, Iowa, United States",0.8156028368794325,42.3953,-94.6339
2014-07-28,"Le Mars, Iowa, United States",0.120048019207683,42.7942,-96.1656
2014-07-28,"United Methodist Church, Iowa, United States",2.58349030339647,43.4294,-96.1722
2014-07-28,"Ida County, Iowa, United States",3.24675324675325,42.3833,-95.5169
2014-07-28,"West Branch, Iowa, United States",0.017731725784252868,41.6714,-91.3465
2014-07-28,"Oskaloosa, Iowa, United States",0.29325513196481,41.2964,-92.6444
2014-07-28,"Coralville, Iowa, United States",1.24298008548483,41.6764,-91.5804
2014-07-28,"Field Of Dreams, Iowa, United States",5.71847507331378,42.4978,-91.054
2014-07-28,"Lake Darling, Iowa, United States",1.9230769230769247,41.1947,-91.8971
2014-07-28,"Rock River, Iowa, United States",0.632911392405063,43.0828,-96.4545
2014-07-28,"Cedar Rapids, Iowa, United States",0.40591850934611445,42.0083,-91.6441
2014-07-28,"Mason City, Iowa, United States",0.379326695116169,43.1536,-93.201
2014-07-28,"Muscatine, Iowa, United States",0.4826254826254828,41.4245,-91.0432
2014-07-28,"Ottumwa, Iowa, United States",0.10193679918450568,41.02,-92.4113
2014-07-28,"Cass County, Iowa, United States",0.23728813559322,41.3333,-94.9336
2014-07-28,"Dubuque County, Iowa, United States",0.0,42.4833,-90.8668
2014-07-28,"Black Hawk County, Iowa, United States",2.98634812286689,42.4667,-92.3168
2014-07-28,"Iowa City Police Department, Iowa, United States",0.16380016380016368,41.6603,-91.5293
2014-07-28,"Sioux City, Iowa, United States",0.011642277907048314,42.5,-96.4003
2014-07-28,"Cedar River, Iowa, United States",1.1261261261261266,41.2831,-91.3468
2014-07-28,"Woodbury County, Iowa, United States",0.04816940678032101,42.3833,-96.0336
2014-07-28,"Mitchellville, Iowa, United States",3.42396777442095,41.6686,-93.3577
2014-07-28,"Princeton Police Department, Iowa, United States",0.67476383265857,41.6756,-90.3424
2014-07-28,"Des Moines, Iowa, United States",0.040248602723663984,41.6005,-93.6091
2014-07-28,"New Market, Iowa, United States",1.85909980430528,40.7311,-94.8997
2014-07-28,"West Liberty, Iowa, United States",-16.0236694649727,41.57,-91.2638
2014-07-28,"Cedar Falls, Iowa, United States",1.1072085318715181,42.5278,-92.4455
2014-07-28,"Urbandale, Iowa, United States",0.2714298486310173,41.6267,-93.7122
2014-07-28,"Johnson County, Iowa, United States",-0.788643533123025,41.6667,-91.5335
2014-07-28,"Worth County, Iowa, United States",0.02706648614121925,43.3833,-93.2669
2014-07-28,"Council Bluffs, Iowa, United States",0.7445467059727714,41.2619,-95.8608
2014-07-28,"Appanoose County, Iowa, United States",0.647249190938511,40.7506,-92.8669
2014-07-28,"Spencer Police Department, Iowa, United States",0.679205851619645,43.1419,-95.1464
2014-07-28,"Sioux City Public Museum, Iowa, United States",1.20967741935484,42.5208,-96.4023
2014-07-28,"Anamosa, Iowa, United States",1.50753768844221,42.1083,-91.2852
2014-07-28,"Algona, Iowa, United States",0.709219858156028,43.07,-94.233
2014-07-28,"Beloit, Iowa, United States",0.03511235955056175,43.2814,-96.5748
2014-07-28,"Key West, Iowa, United States",0.03595828838547288,42.4489,-90.684
2014-07-28,"Cerro Gordo County, Iowa, United States",0.24330900243309,43.0833,-93.2669
2014-07-27,"Windsor Heights Lutheran Church, Iowa, United States",3.57723577235772,41.6014,-93.7088
2014-07-27,"Des Moines, Iowa, United States",0.06778352391192696,41.6005,-93.6091
2014-07-27,"Shell Rock, Iowa, United States",1.123981123981123,42.7103,-92.583
2014-07-27,"Cedar Rapids, Iowa, United States",0.0697606109560875,42.0083,-91.6441
2014-07-27,"Cedar Falls, Iowa, United States",0.22852657257236086,42.5278,-92.4455
2014-07-27,"Maryhill, Iowa, United States",2.65486725663717,42.7355,-95.6886
2014-07-27,"Mason City, Iowa, United States",0.24630291570334584,43.1536,-93.201
2014-07-27,"Pleasant Valley, Iowa, United States",0.858895705521472,41.5698,-90.4232
2014-07-27,"Harrison County, Iowa, United States",0.4524361948955925,41.6833,-95.7836
2014-07-27,"Urbandale, Iowa, United States",2.28136882129278,41.6267,-93.7122
2014-07-27,"City Of Chelsea, Iowa, United States",5.11945392491468,41.9204,-92.3945
2014-07-27,"Delaware County, Iowa, United States",0.0,42.4667,-91.3668
2014-07-27,"Council Bluffs, Iowa, United States",0.17529876581845175,41.2619,-95.8608
2014-07-27,"Stacyville, Iowa, United States",1.90735694822888,43.4361,-92.7824
2014-07-27,"Johnson County, Iowa, United States",3.21100917431193,41.6667,-91.5335
2014-07-27,"Worth County, Iowa, United States",0.02725601725589081,43.3833,-93.2669
2014-07-27,"Round Lake, Iowa, United States",0.15527950310559,40.7247,-91.1314
2014-07-27,"Anamosa, Iowa, United States",0.3254484221806025,42.1083,-91.2852
2014-07-27,"Webster County, Iowa, United States",1.11111111111111,42.4333,-94.1669
2014-07-27,"Sioux City, Iowa, United States",0.13229392187487518,42.5,-96.4003
2014-07-27,"Lake Park, Iowa, United States",0.62111801242236,43.4555,-95.3208
2014-07-27,"Riceville, Iowa, United States",0.08869179600886881,43.3639,-92.5541
2014-07-27,"Burlington, Iowa, United States",0.914742511859354,40.8075,-91.1129
2014-07-27,"Woodbury County, Iowa, United States",0.0,42.3833,-96.0336
2014-07-27,"Clinton Police Department, Iowa, United States",0.5224660397074199,41.8398,-90.1871
2014-07-27,"Gladbrook, Iowa, United States",3.07692307692308,42.1878,-92.7152
2014-07-27,"Mitchellville, Iowa, United States",4.06824146981627,41.6686,-93.3577
2014-07-27,"West Liberty, Iowa, United States",-16.2684934113506,41.57,-91.2638
2014-07-27,"Tama County, Iowa, United States",1.89753320683112,42.0667,-92.5335
2014-07-27,"Linn County, Iowa, United States",-3.8232795242141,42.0667,-91.6002
2014-07-27,"North Liberty, Iowa, United States",1.11230315510857,41.7492,-91.5979
2014-07-27,"Polk County, Iowa, United States",0.4643701452212084,41.6833,-93.5835
2014-07-27,"Marshalltown, Iowa, United States",1.7718715393134001,42.0494,-92.908
2014-07-27,"Chillicothe, Iowa, United States",-3.8265306122449,41.0856,-92.5294
2014-07-27,"Fairmount Park, Iowa, United States",1.10864745011086,41.2517,-95.8417
2014-07-27,"Fort Dodge, Iowa, United States",0.74074074074074,42.4975,-94.168
2014-07-27,"Charles City, Iowa, United States",-13.5135135135135,43.0664,-92.6724
2014-07-27,"Scott County, Iowa, United States",0.36563071297988997,41.6334,-90.6335
2014-07-27,"Mitchell County, Iowa, United States",0.039128733533324474,43.35,-92.7835
2014-07-27,"Dyersville, Iowa, United States",0.20202020202020204,42.4844,-91.1229
2014-07-27,"Davenport Public Library, Iowa, United States",1.81297709923664,41.5486,-90.5515
2014-07-26,"Lewis Hall, Iowa, United States",0.433839479392625,41.2731,-95.7989
2014-07-26,"Morningside College, Iowa, United States",2.60303687635575,42.4747,-96.3595
2014-07-26,"Ida County, Iowa, United States",1.36986301369863,42.3833,-95.5169
2014-07-26,"Jesup, Iowa, United States",-4.91803278688524,42.4755,-92.0638
2014-07-26,"Bedford, Iowa, United States",2.09267563527653,40.6669,-94.7214
2014-07-26,"Cedar Rapids, Iowa, United States",2.0723903707632565,42.0083,-91.6441
2014-07-26,"Edgewood, Iowa, United States",0.545454545454545,42.6444,-91.4013
2014-07-26,"Woodbury County Jail, Iowa, United States",0.0,42.4972,-96.406
2014-07-26,"Mapleton, Iowa, United States",0.377358490566038,42.1658,-95.7931
2014-07-26,"Bremer County, Iowa, United States",0.31111111111111206,42.7666,-92.3168
2014-07-26,"Mapleton Police Department, Iowa, United States",0.2695417789757414,42.1661,-95.7914
2014-07-26,"Clinton Police Department, Iowa, United States",0.12247665626877476,41.8398,-90.1871
2014-07-26,"Cherokee County, Iowa, United States",0.45662100456620996,42.7333,-95.617
2014-07-26,"Fayette County, Iowa, United States",0.22222222222222288,42.8666,-91.8502
2014-07-26,"Clay County, Iowa, United States",0.43050430504304993,43.0833,-95.1503
2014-07-26,"Des Moines, Iowa, United States",0.05426734606420374,41.6005,-93.6091
2014-07-26,"Curt Forbes Residential Center, Iowa, United States",0.38185085354896664,42.0238,-93.6118
2014-07-26,"Muscatine, Iowa, United States",0.16260162601626013,41.4245,-91.0432
2014-07-26,"West Union, Iowa, United States",0.25925925925926,42.9628,-91.8082
2014-07-26,"Iowa State University, Iowa, United States",2.47191011235955,42.0261,-93.6486
2014-07-26,"Sergeant Bluff, Iowa, United States",0.5050505050505066,42.4039,-96.3586
2014-07-26,"Clear Lake, Iowa, United States",0.51851851851852,43.138,-93.3794
2014-07-26,"Chillicothe, Iowa, United States",-3.8265306122449,41.0856,-92.5294
2014-07-26,"First Presbyterian Church, Iowa, United States",1.01892285298399,41.5364,-90.5701
2014-07-26,"Charles City, Iowa, United States",2.16508795669824,43.0664,-92.6724
2014-07-26,"Emmetsburg, Iowa, United States",2.52100840336134,43.1127,-94.683
2014-07-26,"West Branch, Iowa, United States",0.75445816186557,41.6714,-91.3465
2014-07-26,"Estherville Public Library, Iowa, United States",0.7302405498281783,43.4025,-94.8361
2014-07-26,"West Des Moines, Iowa, United States",5.43318649045521,41.5772,-93.7113
2014-07-26,"Moville, Iowa, United States",0.47607440809226803,42.4889,-96.0725
2014-07-26,"Cedar Falls, Iowa, United States",3.5016824656051395,42.5278,-92.4455
2014-07-26,"Council Bluffs, Iowa, United States",1.08583450015603,41.2619,-95.8608
2014-07-26,"Story County, Iowa, United States",0.11628767425669043,42.0333,-93.4669
2014-07-26,"Riceville, Iowa, United States",0.0,43.3639,-92.5541
2014-07-26,"Orange City, Iowa, United States",0.4017775959265331,43.0072,-96.0583
2014-07-26,"Loras College, Iowa, United States",2.25354093381507,42.5042,-90.6815
2014-07-26,"Clayton County, Iowa, United States",1.44587729581868,42.8333,-91.3668
2014-07-26,"Rock Valley, Iowa, United States",1.0752688172043,43.2053,-96.295
2014-07-26,"Okoboji, Iowa, United States",1.26050420168067,43.3864,-95.1483
2014-07-26,"Elk Run Heights, Iowa, United States",0.746268656716418,42.4669,-92.2566
2014-07-26,"Johnson County, Iowa, United States",0.3913081896361876,41.6667,-91.5335
2014-07-26,"Bowen Science Building, Iowa, United States",2.25354093381507,41.6611,-91.5446
2014-07-26,"Drake University, Iowa, United States",0.4592289885021452,41.6014,-93.6519
2014-07-26,"Sioux City, Iowa, United States",0.1330320970017655,42.5,-96.4003
2014-07-26,"Polk County, Iowa, United States",0.08535648434222563,41.6833,-93.5835
2014-07-26,"North Liberty, Iowa, United States",1.6406502407440473,41.7492,-91.5979
2014-07-26,"Mitchell County, Iowa, United States",0.0,43.35,-92.7835
2014-07-26,"Linn County, Iowa, United States",-3.8232795242141,42.0667,-91.6002
2014-07-25,"Indianola, Iowa, United States",0.23640661938534266,41.358,-93.5574
2014-07-25,"Postville, Iowa, United States",-2.8623471246422105,43.0847,-91.5682
2014-07-25,"Ida County, Iowa, United States",0.050916797095451015,42.3833,-95.5169
2014-07-25,"Linn County, Iowa, United States",0.1212662615165626,42.0667,-91.6002
2014-07-25,"Drake University, Iowa, United States",0.4520655321913372,41.6014,-93.6519
2014-07-25,"Emmet County, Iowa, United States",1.3999999999999997,43.3744,-94.6669
2014-07-25,"Cerro Gordo County, Iowa, United States",1.3931888544891633,43.0833,-93.2669
2014-07-25,"Union Memorial Church, Iowa, United States",1.248266296809985,43.3233,-95.1503
2014-07-25,"Salisbury House, Iowa, United States",0.72,41.5792,-93.6716
2014-07-25,"Calvary Cemetery, Iowa, United States",3.1390134529148,42.4992,-92.3663
2014-07-25,"Scott County, Iowa, United States",0.39626883885083086,41.6334,-90.6335
2014-07-25,"Central City, Iowa, United States",0.0,42.2039,-91.5241
2014-07-25,"Muscatine, Iowa, United States",0.8635707817224602,41.4245,-91.0432
2014-07-25,"Charles City, Iowa, United States",1.9402985074626897,43.0664,-92.6724
2014-07-25,"Le Mars, Iowa, United States",2.8,42.7942,-96.1656
2014-07-25,"Cedar Falls, Iowa, United States",0.0,42.5278,-92.4455
2014-07-25,"Cedar Rapids, Iowa, United States",0.0353753426450817,42.0083,-91.6441
2014-07-25,"New London, Iowa, United States",6.941431670282,40.927,-91.3996
2014-07-25,"Okoboji, Iowa, United States",1.26050420168067,43.3864,-95.1483
2014-07-25,"Toledo Police Department, Iowa, United States",0.4705882352941179,41.9608,-92.5819
2014-07-25,"Delaware County, Iowa, United States",0.0,42.4667,-91.3668
2014-07-25,"Emmetsburg, Iowa, United States",2.52100840336134,43.1127,-94.683
2014-07-25,"West Union, Iowa, United States",0.0,42.9628,-91.8082
2014-07-25,"Tioga, Iowa, United States",0.0,41.297,-92.4224
2014-07-25,"Bremer County, Iowa, United States",0.0,42.7666,-92.3168
2014-07-25,"Algona, Iowa, United States",4.17956656346749,43.07,-94.233
2014-07-25,"Des Moines, Iowa, United States",0.049286196943349944,41.6005,-93.6091
2014-07-25,"Meyers Lake, Iowa, United States",0.0,42.4617,-92.2889
2014-07-25,"Shell Rock, Iowa, United States",0.9661835748792266,42.7103,-92.583
2014-07-25,"Marshall Town, Iowa, United States",1.1447811447811438,42.0494,-92.908
2014-07-25,"Cedar Rapids Police Department, Iowa, United States",0.34129692832764663,41.9736,-91.6696
2014-07-25,"Council Bluffs, Iowa, United States",0.25687600644122377,41.2619,-95.8608
2014-07-25,"Williamsburg, Iowa, United States",-2.40202275600506,41.6611,-92.0091
2014-07-25,"Black Hawk County, Iowa, United States",0.3773584905660371,42.4667,-92.3168
2014-07-25,"Evansdale, Iowa, United States",0.0,42.4692,-92.281
2014-07-25,"Cedar Lake, Iowa, United States",0.21404109589041126,41.9911,-91.6683
2014-07-25,"Oskaloosa, Iowa, United States",0.23640661938534266,41.2964,-92.6444
2014-07-25,"Burlington, Iowa, United States",0.4901960784313724,40.8075,-91.1129
2014-07-25,"Johnson County, Iowa, United States",0.5140128692382249,41.6667,-91.5335
2014-07-25,"Guadalupe Chapel, Iowa, United States",3.1390134529148,41.5819,-93.6036
2014-07-25,"Mason City, Iowa, United States",1.0,43.1536,-93.201
2014-07-25,"Anamosa, Iowa, United States",0.8403361344537819,42.1083,-91.2852
2014-07-25,"Pleasant Hill, Iowa, United States",0.827541893856983,41.5839,-93.5199
2014-07-25,"Fayette County, Iowa, United States",0.0,42.8666,-91.8502
2014-07-25,"Ottumwa, Iowa, United States",0.15642737810973756,41.02,-92.4113
2014-07-25,"Woodbury County, Iowa, United States",0.30441400304413996,42.3833,-96.0336
2014-07-25,"West Point, Iowa, United States",0.869565217391304,40.7167,-91.4502
2014-07-25,"Iowa City City Park, Iowa, United States",6.569343065693429,41.6728,-91.5357
2014-07-25,"Northwestern College, Iowa, United States",1.171875,42.998,-96.0536
2014-07-25,"East High School, Iowa, United States",2.37529691211401,41.5969,-93.5999
2014-07-25,"Polk County, Iowa, United States",1.1903481016132618,41.6833,-93.5835
2014-07-25,"North Raccoon River, Iowa, United States",1.28755364806867,41.5442,-93.9663
2014-07-25,"Clinton County, Iowa, United States",0.0,41.8834,-90.5501
2014-07-25,"Floyd Valley Hospital, Iowa, United States",0.91324200913242,42.7962,-96.1556
2014-07-25,"Sioux City, Iowa, United States",0.11860185004662739,42.5,-96.4003
2014-07-25,"Story County, Iowa, United States",0.14092624087150873,42.0333,-93.4669
2014-07-25,"Wapello County, Iowa, United States",0.14471159749679,41.0333,-92.4169
2014-07-24,"Centerville, Iowa, United States",0.322061191626409,40.7342,-92.8741
2014-07-24,"Davis County, Iowa, United States",0.644122383252818,40.7506,-92.4169
2014-07-24,"Mason City, Iowa, United States",0.1765755618166467,43.1536,-93.201
2014-07-24,"Le Mars, Iowa, United States",2.15605749486653,42.7942,-96.1656
2014-07-24,"Monona County, Iowa, United States",0.33065658951346233,42.0333,-95.967
2014-07-24,"Scott County, Iowa, United States",0.21747353867238534,41.6334,-90.6335
2014-07-24,"Clear Lake, Iowa, United States",2.11072664359862,43.138,-93.3794
2014-07-24,"Fort Des Moines, Iowa, United States",0.0,41.5203,-93.6158
2014-07-24,"Cedar Falls, Iowa, United States",5.24642289348172,42.5278,-92.4455
2014-07-24,"Winneshiek County Sheriffs Office, Iowa, United States",0.07062146892655362,43.3058,-91.7896
2014-07-24,"Des Moines, Iowa, United States",0.03334546288508604,41.6005,-93.6091
2014-07-24,"Pocahontas, Iowa, United States",0.0,42.7355,-94.6691
2014-07-24,"Hamilton House, Iowa, United States",0.966183574879227,41.3633,-93.5669
2014-07-24,"Lee County, Iowa, United States",0.502008032128515,40.65,-91.4835
2014-07-24,"Eagle Grove, Iowa, United States",0.0,42.6641,-93.9044
2014-07-24,"Burlington, Iowa, United States",0.17057605272826182,40.8075,-91.1129
2014-07-24,"Cedar County, Iowa, United States",1.43737166324435,41.7667,-91.1335
2014-07-24,"Ida County, Iowa, United States",0.0,42.3833,-95.5169
2014-07-24,"Winneshiek County, Iowa, United States",0.07170848721341753,43.2833,-91.8502
2014-07-24,"Preston Fire Department, Iowa, United States",2.12765957446809,42.0502,-90.3972
2014-07-24,"Osage High School, Iowa, United States",0.43046357615894,43.2775,-92.8094
2014-07-24,"Sanford Sheldon Medical Center, Iowa, United States",2.21105527638191,43.1871,-95.8467
2014-07-24,"Drake University, Iowa, United States",0.9575923392612851,41.6014,-93.6519
2014-07-24,"Wapello County, Iowa, United States",0.5283018867924534,41.0333,-92.4169
2014-07-24,"West Branch, Iowa, United States",0.4750925911630542,41.6714,-91.3465
2014-07-24,"Louisa County, Iowa, United States",0.5195194886364397,41.2334,-91.2668
2014-07-24,"Washingtonhouse, Iowa, United States",0.88967971530249,41.3639,-93.5622
2014-07-24,"Linn County, Iowa, United States",0.526315789473685,42.0667,-91.6002
2014-07-24,"Camanche, Iowa, United States",2.65486725663717,41.7881,-90.2562
2014-07-24,"Wright County Jail, Iowa, United States",0.0,42.7264,-93.7349
2014-07-24,"Brooklyn, Iowa, United States",1.3850415512465353,41.7336,-92.4455
2014-07-24,"Polk County, Iowa, United States",0.245417762266774,41.6833,-93.5835
2014-07-24,"Plymouth County, Iowa, United States",0.046063651591289785,42.7333,-96.2336
2014-07-24,"Fort Madison, Iowa, United States",0.502008032128515,40.6298,-91.3151
2014-07-24,"Urbandale, Iowa, United States",0.62444246208742,41.6267,-93.7122
2014-07-24,"Council Bluffs, Iowa, United States",0.24595725432545518,41.2619,-95.8608
2014-07-24,"Chillicothe, Iowa, United States",0.644122383252818,41.0856,-92.5294
2014-07-24,"Black Hawk County, Iowa, United States",0.27967983256592366,42.4667,-92.3168
2014-07-24,"Floyd County, Iowa, United States",0.43046357615894,43.0666,-92.7835
2014-07-24,"Sheldon Fire Department, Iowa, United States",1.105527638190955,43.1801,-95.8529
2014-07-24,"Creston, Iowa, United States",1.8005540166205,41.0586,-94.3614
2014-07-24,"Cedar Rapids, Iowa, United States",0.254239669588053,42.0083,-91.6441
2014-07-24,"Storm Lake, Iowa, United States",3.77358490566038,42.6411,-95.2097
2014-07-24,"Altoona, Iowa, United States",3.21690120251489,41.6442,-93.4647
2014-07-24,"Fort Dodge, Iowa, United States",1.2145648170072418,42.4975,-94.168
2014-07-24,"Ottumwa, Iowa, United States",0.08194635894390072,41.02,-92.4113
2014-07-24,"Hartford City Hall, Iowa, United States",0.588235294117645,41.4594,-93.4049
2014-07-24,"University Of Iowa, Iowa, United States",0.636942675159236,41.6617,-91.5363
2014-07-24,"Sioux City, Iowa, United States",0.07538404422905183,42.5,-96.4003
2014-07-24,"Marshalltown, Iowa, United States",1.14503816793893,42.0494,-92.908
2014-07-24,"Oskaloosa, Iowa, United States",0.69204152249135,41.2964,-92.6444
2014-07-24,"Waverly Police Department, Iowa, United States",1.19047619047619,42.7272,-92.466
2014-07-24,"Mount Pleasant, Iowa, United States",0.8649871222774221,40.9636,-91.5579
2014-07-23,"Fort Dodge Public Library, Iowa, United States",0.2505010020040075,42.5052,-94.1919
2014-07-23,"Tama County Sheriff Office, Iowa, United States",0.659340659340659,41.9958,-92.5796
2014-07-23,"Lee County, Iowa, United States",1.2362278039780021,40.65,-91.4835
2014-07-23,"Musser Public Library, Iowa, United States",0.657894736842105,41.4222,-91.0474
2014-07-23,"Kalona, Iowa, United States",1.0156971375807933,41.4831,-91.706
2014-07-23,"Wapello County, Iowa, United States",0.0,41.0333,-92.4169
2014-07-23,"Emmetsburg, Iowa, United States",0.18262685609967033,43.1127,-94.683
2014-07-23,"Floyd County, Iowa, United States",2.4390243902439,43.0666,-92.7835
2014-07-23,"Clayton County, Iowa, United States",0.05673222390317699,42.8333,-91.3668
2014-07-23,"Algona, Iowa, United States",0.8271233021510496,43.07,-94.233
2014-07-23,"Johnson County, Iowa, United States",0.9637188208616765,41.6667,-91.5335
2014-07-23,"Burlington, Iowa, United States",0.14832471649567283,40.8075,-91.1129
2014-07-23,"Cedar Rapids, Iowa, United States",0.18818698651700383,42.0083,-91.6441
2014-07-23,"Hancher Auditorium, Iowa, United States",4.12541254125412,41.6692,-91.5379
2014-07-23,"Fort Madison Community Hospital, Iowa, United States",0.662251655629139,40.6257,-91.3849
2014-07-23,"Scott County, Iowa, United States",0.4582951420714939,41.6334,-90.6335
2014-07-23,"English River, Iowa, United States",1.9247985675917652,41.4875,-91.5018
2014-07-23,"West Branch, Iowa, United States",3.2051282051282,41.6714,-91.3465
2014-07-23,"Sioux City, Iowa, United States",0.036606480732918424,42.5,-96.4003
2014-07-23,"Waukon, Iowa, United States",2.527472527472525,43.2694,-91.4757
2014-07-23,"Mckinley Park, Iowa, United States",1.923076923076925,41.0586,-94.3825
2014-07-23,"Washingtonhouse, Iowa, United States",0.967506389193135,41.3639,-93.5622
2014-07-23,"Plymouth County, Iowa, United States",0.3119151590767314,42.7333,-96.2336
2014-07-23,"Story County, Iowa, United States",1.206434316353885,42.0333,-93.4669
2014-07-23,"Marshall County, Iowa, United States",0.10989010989010983,42.0333,-93.0008
2014-07-23,"Williamsburg Fire Department, Iowa, United States",1.19192740078559,41.669,-92.0064
2014-07-23,"Woodbury County Jail, Iowa, United States",0.1902856413094375,42.4972,-96.406
2014-07-23,"Wright County, Iowa, United States",0.03665689149560116,42.7333,-93.7169
2014-07-23,"Ackworth, Iowa, United States",0.7153075822603735,41.3669,-93.4727
2014-07-23,"Ottumwa, Iowa, United States",0.31558059147356254,41.02,-92.4113
2014-07-23,"Des Moines County, Iowa, United States",0.6109201985490634,40.9167,-91.1835
2014-07-23,"Woodbury County, Iowa, United States",4.782608695652174,42.3833,-96.0336
2014-07-23,"Clarinda Academy, Iowa, United States",0.43329532497149403,40.7578,-95.0378
2014-07-23,"Volga River, Iowa, United States",0.151285930408472,42.748,-91.2707
2014-07-23,"Muscatine, Iowa, United States",0.018848726224639012,41.4245,-91.0432
2014-07-23,"Creston, Iowa, United States",1.923076923076925,41.0586,-94.3614
2014-07-23,"Marion Airport, Iowa, United States",2.48091603053435,42.0336,-91.5315
2014-07-23,"Fort Madison, Iowa, United States",0.8257055865053335,40.6298,-91.3151
2014-07-23,"Indian Creek Nature Center, Iowa, United States",2.23880597014925,41.9661,-91.5793
2014-07-23,"Mason City, Iowa, United States",0.0048203627864058,43.1536,-93.201
2014-07-23,"Cass County, Iowa, United States",0.0,41.3333,-94.9336
2014-07-23,"Lutheran Church, Iowa, United States",2.9761904761904767,42.735,-93.7341
2014-07-23,"Hancock County, Iowa, United States",2.98507462686567,43.0833,-93.7169
2014-07-23,"Tama County, Iowa, United States",0.0549450549450549,42.0667,-92.5335
2014-07-23,"Oconnell Slough, Iowa, United States",1.83276059564719,40.8234,-91.0979
2014-07-23,"Coralville, Iowa, United States",0.810810810810811,41.6764,-91.5804
2014-07-23,"Spencer High School, Iowa, United States",2.010376134889755,43.1408,-95.1336
2014-07-23,"Willowbrook, Iowa, United States",0.0,41.8706,-92.1991
2014-07-23,"Rock Rapids, Iowa, United States",2.85171102661597,43.4272,-96.1759
2014-07-23,"Millville, Iowa, United States",0.151285930408472,42.7,-91.0743
2014-07-23,"Forest City, Iowa, United States",0.53475935828877,43.2625,-93.6372
2014-07-23,"Mitchell County, Iowa, United States",1.0230179028133,43.35,-92.7835
2014-07-23,"Clay County, Iowa, United States",1.3402507565931698,43.0833,-95.1503
2014-07-23,"Postville, Iowa, United States",0.90439276485788,43.0847,-91.5682
2014-07-23,"Interstate, Iowa, United States",1.7252484981625376,41.6961,-92.7269
2014-07-23,"Des Moines, Iowa, United States",0.033911744341841604,41.6005,-93.6091
2014-07-23,"Hilton Coliseum, Iowa, United States",0.29569892473118264,42.0211,-93.6349
2014-07-23,"Cedar Falls, Iowa, United States",2.33766233766234,42.5278,-92.4455
2014-07-23,"Jackson County, Iowa, United States",1.89274447949527,42.1667,-90.5835
2014-07-22,"Davenport Police Department, Iowa, United States",0.2159050017992086,41.5239,-90.5768
2014-07-22,"Oskaloosa Public Library, Iowa, United States",0.72463768115942,41.2933,-92.6452
2014-07-22,"Johnson County, Iowa, United States",0.20491803278688528,41.6667,-91.5335
2014-07-22,"Muscatine Municipal Airport, Iowa, United States",0.714285714285714,41.3633,-91.1449
2014-07-22,"Cass County, Iowa, United States",0.007507507507507515,41.3333,-94.9336
2014-07-22,"Trinity United Methodist Church, Iowa, United States",2.13114754098361,41.8586,-90.2232
2014-07-22,"Trenton, Iowa, United States",2.45901639344262,41.0617,-91.6374
2014-07-22,"Tama County, Iowa, United States",0.576752440106475,42.0667,-92.5335
2014-07-22,"Decorah City Hall, Iowa, United States",1.04166666666667,43.3061,-91.7896
2014-07-22,"Burlington, Iowa, United States",0.10030918765432156,40.8075,-91.1129
2014-07-22,"Coralville, Iowa, United States",0.08100974252576293,41.6764,-91.5804
2014-07-22,"Cedar Falls, Iowa, United States",0.425170068027211,42.5278,-92.4455
2014-07-22,"Lee County, Iowa, United States",2.75127823665162,40.65,-91.4835
2014-07-22,"Sioux City, Iowa, United States",0.04272793187921127,42.5,-96.4003
2014-07-22,"Dickinson County, Iowa, United States",0.35714285714285804,43.3833,-95.1503
2014-07-22,"Polk County, Iowa, United States",0.02381818783287571,41.6833,-93.5835
2014-07-22,"Fort Madison, Iowa, United States",2.75127823665162,40.6298,-91.3151
2014-07-22,"Calhoun County, Iowa, United States",0.654205607476636,42.3833,-94.6503
2014-07-22,"Emmetsburg, Iowa, United States",0.18272317132196023,43.1127,-94.683
2014-07-22,"Titonka, Iowa, United States",1.4993481095176,43.2369,-94.0413
2014-07-22,"Linn County, Iowa, United States",1.7699115044247802,42.0667,-91.6002
2014-07-22,"Urbandale, Iowa, United States",0.18966334755808434,41.6267,-93.7122
2014-07-22,"Kalona, Iowa, United States",0.22141789950319984,41.4831,-91.706
2014-07-22,"Essex, Iowa, United States",0.2180685358255454,40.8336,-95.3083
2014-07-22,"Richland, Iowa, United States",2.8388928317956,41.1856,-91.993
2014-07-22,"Boone County, Iowa, United States",1.14068441064639,42.0333,-93.9336
2014-07-22,"West Branch, Iowa, United States",0.3859939343810311,41.6714,-91.3465
2014-07-22,"Okoboji, Iowa, United States",1.4993481095176,43.3864,-95.1483
2014-07-22,"Forest City, Iowa, United States",0.27260874718501826,43.2625,-93.6372
2014-07-22,"Dyersville, Iowa, United States",0.0,42.4844,-91.1229
2014-07-22,"Ellsworth, Iowa, United States",12.3595505617978,42.3128,-93.5788
2014-07-22,"Wheatland, Iowa, United States",0.90497737556561,41.8317,-90.8382
2014-07-22,"Kinnick Stadium, Iowa, United States",0.6545820745216534,41.6583,-91.5507
2014-07-22,"Jackson County, Iowa, United States",0.7361268403171,42.1667,-90.5835
2014-07-22,"Creston, Iowa, United States",2.40524781341108,41.0586,-94.3614
2014-07-22,"Grundy County, Iowa, United States",6.97674418604651,42.4,-92.8002
2014-07-22,"Medical Clinic, Iowa, United States",1.375,40.8983,-95.6714
2014-07-22,"Coralville Police Department, Iowa, United States",1.0536398467433,41.6781,-91.5835
2014-07-22,"Cedar Rapids, Iowa, United States",0.22811653925784386,42.0083,-91.6441
2014-07-22,"Muscatine, Iowa, United States",0.2415222948026126,41.4245,-91.0432
2014-07-22,"Grundy Center, Iowa, United States",3.488372093023255,42.3616,-92.7685
2014-07-22,"Wartburg College, Iowa, United States",1.164725457570715,42.7278,-92.4813
2014-07-22,"Woodbury County, Iowa, United States",0.298804780876495,42.3833,-96.0336
2014-07-22,"Des Moines, Iowa, United States",0.028788408317526167,41.6005,-93.6091
2014-07-22,"Worth County, Iowa, United States",2.47813411078717,43.3833,-93.2669
2014-07-22,"Ottumwa, Iowa, United States",0.14329965865561184,41.02,-92.4113
2014-07-22,"North Liberty, Iowa, United States",0.6033182503770733,41.7492,-91.5979
2014-07-22,"Buena Vista County, Iowa, United States",0.0955948402736647,42.7333,-95.1503
2014-07-22,"Winneshiek County, Iowa, United States",1.050420168067225,43.2833,-91.8502
2014-07-22,"Riceville, Iowa, United States",2.9986962190352,43.3639,-92.5541
2014-07-22,"Mercy Medical Center, Iowa, United States",0.0,41.5988,-93.6233
2014-07-22,"Mason City Municipal Airport, Iowa, United States",1.73469387755102,43.1534,-93.3357
2014-07-22,"Rockwell City, Iowa, United States",0.654205607476636,42.3953,-94.6339
2014-07-22,"Clear Lake, Iowa, United States",0.035153503632528706,43.138,-93.3794
2014-07-22,"Warren County, Iowa, United States",-11.3821138211382,41.3333,-93.5502
2014-07-22,"Washingtonhouse, Iowa, United States",2.25963967557505,41.3639,-93.5622
2014-07-22,"Wapello County, Iowa, United States",0.1308670636154502,41.0333,-92.4169
2014-07-22,"Sioux Rapids, Iowa, United States",1.4722536806342,42.8933,-95.1511
2014-07-22,"Scott County, Iowa, United States",0.15170296481269263,41.6334,-90.6335
2014-07-21,"Prairie Grove, Iowa, United States",3.47985347985348,40.8792,-91.2524
2014-07-21,"Le Mars, Iowa, United States",2.73972602739726,42.7942,-96.1656
2014-07-21,"Dickinson County, Iowa, United States",0.363984674329502,43.3833,-95.1503
2014-07-21,"Spirit Lake, Iowa, United States",1.81992337164751,43.4222,-95.1022
2014-07-21,"Okoboji, Iowa, United States",0.2732538898167925,43.3864,-95.1483
2014-07-21,"Belle Plaine, Iowa, United States",0.404858299595142,41.8969,-92.2782
2014-07-21,"Tama County Sheriff Office, Iowa, United States",0.050607287449392746,41.9958,-92.5796
2014-07-21,"Burlington, Iowa, United States",0.268817204301075,40.8075,-91.1129
2014-07-21,"Mount Vernon, Iowa, United States",0.617283950617284,41.922,-91.4168
2014-07-21,"Rockwell City, Iowa, United States",0.11614401858304284,42.3953,-94.6339
2014-07-21,"Marshalltown, Iowa, United States",2.7027027027027,42.0494,-92.908
2014-07-21,"Mason City, Iowa, United States",0.16352403439344068,43.1536,-93.201
2014-07-21,"Ottumwa, Iowa, United States",0.1593231740357095,41.02,-92.4113
2014-07-21,"Clinton County, Iowa, United States",0.3930896689517383,41.8834,-90.5501
2014-07-21,"Cedar Rapids, Iowa, United States",0.027889353186697753,42.0083,-91.6441
2014-07-21,"Rock River, Iowa, United States",2.99785867237687,43.0828,-96.4545
2014-07-21,"Cerro Gordo County, Iowa, United States",0.71460182012119,43.0833,-93.2669
2014-07-21,"Waterloo Police Department, Iowa, United States",1.36986301369863,42.4992,-92.3318
2014-07-21,"Mount Pleasant, Iowa, United States",-0.76955074875208,40.9636,-91.5579
2014-07-21,"Nora Springs, Iowa, United States",3.52112676056338,43.1427,-93.0044
2014-07-21,"Tama County, Iowa, United States",0.1012145748987855,42.0667,-92.5335
2014-07-21,"Walnut Grove, Iowa, United States",0.8057035626427965,41.4703,-90.6612
2014-07-21,"Webster County, Iowa, United States",0.23816981181322264,42.4333,-94.1669
2014-07-21,"Buena Vista County, Iowa, United States",0.0780487804878048,42.7333,-95.1503
2014-07-21,"Des Moines, Iowa, United States",0.03217915432440858,41.6005,-93.6091
2014-07-21,"Emmetsburg, Iowa, United States",0.20330164348717686,43.1127,-94.683
2014-07-21,"Woodbury County, Iowa, United States",3.3842794759825297,42.3833,-96.0336
2014-07-21,"Greenville, Iowa, United States",-2.29681978798587,43.0166,-95.1461
2014-07-21,"Rock Rapids, Iowa, United States",0.1709775707025222,43.4272,-96.1759
2014-07-21,"Polk County, Iowa, United States",0.08508997720359533,41.6833,-93.5835
2014-07-21,"Black Hawk County, Iowa, United States",2.98634812286689,42.4667,-92.3168
2014-07-21,"Mitchell County, Iowa, United States",0.662251655629139,43.35,-92.7835
2014-07-21,"Calhoun County, Iowa, United States",0.007742934572202857,42.3833,-94.6503
2014-07-21,"Algona, Iowa, United States",0.3756638043363538,43.07,-94.233
2014-07-21,"Jasper County, Iowa, United States",-1.61054172767203,41.6833,-93.0502
2014-07-21,"Janesville, Iowa, United States",0.888888888888889,42.6461,-92.463
2014-07-21,"Johnson County, Iowa, United States",0.31919478513836225,41.6667,-91.5335
2014-07-21,"Sioux City, Iowa, United States",0.18434644358270919,42.5,-96.4003
2014-07-21,"Marble Rock, Iowa, United States",1.76056338028169,42.9652,-92.8685
2014-07-21,"Elberon, Iowa, United States",0.10121457489878552,42.0061,-92.3169
2014-07-21,"Cedar Falls, Iowa, United States",2.5396825396825404,42.5278,-92.4455
2014-07-21,"Sac County, Iowa, United States",0.0,42.3833,-95.1169
2014-07-21,"Essex, Iowa, United States",0.13175230566534898,40.8336,-95.3083
2014-07-21,"Rock Valley, Iowa, United States",0.522565320665084,43.2053,-96.295
2014-07-21,"Ida Grove, Iowa, United States",0.47468354430379744,42.345,-95.4717
2014-07-21,"Johnson County Jail, Iowa, United States",0.42955326460481,41.655,-91.5366
2014-07-21,"Madison School, Iowa, United States",1.69753086419753,41.2572,-95.837
2014-07-21,"Clear Lake, Iowa, United States",0.5092372411461441,43.138,-93.3794
2014-07-21,"Estherville, Iowa, United States",1.4041123983137502,43.4016,-94.8328
2014-07-21,"Springville, Iowa, United States",3.0527289546716,42.0594,-91.4427
2014-07-21,"Wapello, Iowa, United States",0.609756097560976,41.1814,-91.1854
2014-07-21,"Muscatine, Iowa, United States",0.1362274339807893,41.4245,-91.0432
2014-07-21,"Scott County, Iowa, United States",0.8672086720867199,41.6334,-90.6335
2014-07-21,"Linn County, Iowa, United States",0.0,42.0667,-91.6002
2014-07-21,"Wapello County, Iowa, United States",0.12040263718145176,41.0333,-92.4169
2014-07-21,"Lutheran Church, Iowa, United States",2.73972602739726,42.735,-93.7341
2014-07-21,"Johnson County Sheriffs Office, Iowa, United States",1.7182130584192403,41.6564,-91.5366
2014-07-21,"Eagle Point, Iowa, United States",1.5616246498599462,42.5347,-90.6446
2014-07-21,"Garwin, Iowa, United States",0.404858299595142,42.0936,-92.6758
2014-07-21,"Urbandale, Iowa, United States",0.42194092827004204,41.6267,-93.7122
2014-07-20,"Cedar Falls, Iowa, United States",0.84006734006734,42.5278,-92.4455
2014-07-20,"Rock Valley, Iowa, United States",0.3752414380184388,43.2053,-96.295
2014-07-20,"Woodbury County, Iowa, United States",1.2104855693659438,42.3833,-96.0336
2014-07-20,"Mayflower Residence Hall, Iowa, United States",2.65848670756646,41.6722,-91.5263
2014-07-20,"Des Moines International Airport, Iowa, United States",1.30010834236186,41.5393,-93.6586
2014-07-20,"Orange City, Iowa, United States",1.4493284493284493,43.0072,-96.0583
2014-07-20,"Clear Lake, Iowa, United States",0.5078489544787687,43.138,-93.3794
2014-07-20,"Sioux County, Iowa, United States",0.0,42.7333,-96.2336
2014-07-20,"Trenton, Iowa, United States",0.15485516487520457,41.0617,-91.6374
2014-07-20,"Estherville, Iowa, United States",0.7256818910311866,43.4016,-94.8328
2014-07-20,"Sioux City, Iowa, United States",0.10230182737176724,42.5,-96.4003
2014-07-20,"Algona, Iowa, United States",1.5166009998928243,43.07,-94.233
2014-07-20,"Odebolt, Iowa, United States",0.988142292490119,42.3122,-95.2505
2014-07-20,"Ringsted, Iowa, United States",1.7879948914431667,43.2947,-94.5116
2014-07-20,"Linn County, Iowa, United States",0.5839919637611106,42.0667,-91.6002
2014-07-20,"Cedar Rapids, Iowa, United States",0.248555290565447,42.0083,-91.6441
2014-07-20,"Essex, Iowa, United States",0.04686035613870673,40.8336,-95.3083
2014-07-20,"City Of Davenport, Iowa, United States",0.69832402234637,41.5558,-90.6052
2014-07-20,"Des Moines, Iowa, United States",0.03848917243556327,41.6005,-93.6091
2014-07-20,"Hawkeye Community College, Iowa, United States",1.0,42.4305,-92.3307
2014-07-20,"Cerro Gordo County, Iowa, United States",2.72727272727273,43.0833,-93.2669
2014-07-20,"Mason City, Iowa, United States",0.2765039493643767,43.1536,-93.201
2014-07-20,"Mason City Municipal Airport, Iowa, United States",1.01010101010101,43.1534,-93.3357
2014-07-20,"Drake University, Iowa, United States",0.5899705014749267,41.6014,-93.6519
2014-07-20,"Indianola, Iowa, United States",1.0461245839277233,41.358,-93.5574
2014-07-20,"Strawberry Point, Iowa, United States",0.51548999372711,42.6836,-91.534
2014-07-20,"Emmet County, Iowa, United States",5.3639846743295,43.3744,-94.6669
2014-07-20,"Hamilton County, Iowa, United States",1.46103896103896,42.3833,-93.7169
2014-07-20,"Johnson County, Iowa, United States",0.5313384237960211,41.6667,-91.5335
2014-07-20,"Ames Municipal Cemetery, Iowa, United States",1.06837606837607,42.0319,-93.6049
2014-07-20,"Las Americas United Methodist Church, Iowa, United States",1.64835164835165,41.6005,-93.6091
2014-07-20,"Altoona, Iowa, United States",0.33472803347280394,41.6442,-93.4647
2014-07-20,"Davenport Public Library, Iowa, United States",1.33882595262616,41.5486,-90.5515
2014-07-20,"Okoboji, Iowa, United States",0.62555853440572,43.3864,-95.1483
2014-07-19,"Scott County, Iowa, United States",0.0785052598524101,41.6334,-90.6335
2014-07-19,"Clear Lake, Iowa, United States",1.26627509399771,43.138,-93.3794
2014-07-19,"Interstate, Iowa, United States",0.952380952380952,41.6961,-92.7269
2014-07-19,"Mapleton Police Department, Iowa, United States",1.42857142857143,42.1661,-95.7914
2014-07-19,"Sac County, Iowa, United States",0.21588946459412775,42.3833,-95.1169
2014-07-19,"Orpheum Theater, Iowa, United States",0.29563932002956334,42.4961,-96.4048
2014-07-19,"Anderson Dance Pavilion, Iowa, United States",0.7287827700671767,42.4886,-96.4086
2014-07-19,"Fort Dodge, Iowa, United States",0.8054108958908331,42.4975,-94.168
2014-07-19,"City Of Newton, Iowa, United States",0.6576402321083181,41.6963,-93.0412
2014-07-19,"Sioux Center, Iowa, United States",0.346534653465346,43.0797,-96.1756
2014-07-19,"Cedar Rapids, Iowa, United States",0.14550816704540723,42.0083,-91.6441
2014-07-19,"First Christian Church, Iowa, United States",0.29761904761904795,43.4041,-94.8355
2014-07-19,"Sioux City Fire Department, Iowa, United States",0.38787899303792506,42.4967,-96.4067
2014-07-19,"Sac County Sheriffs Office, Iowa, United States",0.6756756756756767,42.4225,-94.988
2014-07-19,"Brooklyn, Iowa, United States",1.83080808080808,41.7336,-92.4455
2014-07-19,"Bowen Science Building, Iowa, United States",2.16486261448793,41.6611,-91.5446
2014-07-19,"Ottumwa, Iowa, United States",0.867052023121385,41.02,-92.4113
2014-07-19,"Council Bluffs, Iowa, United States",0.0,41.2619,-95.8608
2014-07-19,"Mackay Hall, Iowa, United States",1.23796423658872,42.0283,-93.6472
2014-07-19,"Mercy Medical Center, Iowa, United States",0.16708437761069328,41.5988,-93.6233
2014-07-19,"Polk County, Iowa, United States",0.183150183150183,41.6833,-93.5835
2014-07-19,"Shell Rock, Iowa, United States",6.86274509803922,42.7103,-92.583
2014-07-19,"May City, Iowa, United States",0.5775577557755767,43.3208,-95.4744
2014-07-19,"Sioux City, Iowa, United States",0.031202369858675073,42.5,-96.4003
2014-07-19,"Rock Valley, Iowa, United States",0.11839419471238428,43.2053,-96.295
2014-07-19,"Algona, Iowa, United States",0.3133355203647166,43.07,-94.233
2014-07-19,"Urbandale, Iowa, United States",3.1496062992126,41.6267,-93.7122
2014-07-19,"Drake University, Iowa, United States",0.7216208714959766,41.6014,-93.6519
2014-07-19,"Okoboji, Iowa, United States",1.99296600234467,43.3864,-95.1483
2014-07-19,"Johnson County, Iowa, United States",0.8620689655172409,41.6667,-91.5335
2014-07-19,"Rock Rapids, Iowa, United States",0.35784034945003307,43.4272,-96.1759
2014-07-19,"Cerro Gordo County, Iowa, United States",0.2732996609700407,43.0833,-93.2669
2014-07-19,"Lagomarcino Hall, Iowa, United States",1.23796423658872,42.0297,-93.6455
2014-07-19,"Marshall County, Iowa, United States",2.20264317180617,42.0333,-93.0008
2014-07-19,"Briar Cliff University, Iowa, United States",1.21794871794872,42.5267,-96.4261
2014-07-19,"Midamerica Air Museum, Iowa, United States",0.28538812785388,42.4097,-96.3703
2014-07-19,"Mahaska County, Iowa, United States",2.41477272727273,41.3333,-92.6502
2014-07-19,"Clayton County, Iowa, United States",0.597274705141419,42.8333,-91.3668
2014-07-19,"Loras College, Iowa, United States",2.16486261448793,42.5042,-90.6815
2014-07-19,"Carroll High School, Iowa, United States",1.51248548965053,42.0928,-94.8597
2014-07-19,"Lutheran Church, Iowa, United States",3.02178571744362,42.735,-93.7341
2014-07-19,"Jackson County, Iowa, United States",2.53011251374387,42.1667,-90.5835
2014-07-19,"Cedar Falls, Iowa, United States",0.7015346344898906,42.5278,-92.4455
2014-07-19,"Clinton County, Iowa, United States",0.67204301075269,41.8834,-90.5501
2014-07-19,"Davenport Public Library, Iowa, United States",0.7987846301311231,41.5486,-90.5515
2014-07-19,"Mercy Hospital, Iowa, United States",3.0241935483871,41.6641,-91.5285
2014-07-19,"Ionia, Iowa, United States",1.82403433476395,43.0341,-92.456
2014-07-19,"Odebolt, Iowa, United States",0.5563455045320347,42.3122,-95.2505
2014-07-19,"Estherville, Iowa, United States",0.7779981184066045,43.4016,-94.8328
2014-07-19,"Rockford City Hall, Iowa, United States",2.97157622739018,43.0525,-92.9491
2014-07-19,"Clinton Public Library, Iowa, United States",0.2795527156549525,41.8381,-90.191
2014-07-19,"Des Moines, Iowa, United States",0.05450671038998406,41.6005,-93.6091
2014-07-19,"Springville, Iowa, United States",3.13942751615882,42.0594,-91.4427
2014-07-19,"Essex, Iowa, United States",0.0,40.8336,-95.3083
2014-07-19,"Dallas County, Iowa, United States",2.0235952166645217,41.6833,-94.0502
2014-07-19,"Centerville, Iowa, United States",0.7285974499089267,40.7342,-92.8741
2014-07-19,"Sunset View Cemetery, Iowa, United States",1.75438596491228,42.5783,-95.7106
2014-07-19,"Indianola, Iowa, United States",1.0877913123546483,41.358,-93.5574
2014-07-19,"Trenton, Iowa, United States",0.37831021437578666,41.0617,-91.6374
2014-07-19,"Hamilton County, Iowa, United States",0.8312618873871567,42.3833,-93.7169
2014-07-19,"Mason City, Iowa, United States",0.056321846936792444,43.1536,-93.201
2014-07-18,"Gilbertville, Iowa, United States",1.59914712153518,42.4161,-92.2149
2014-07-18,"Jefferson County, Iowa, United States",0.20674936641323224,41.0334,-91.9502
2014-07-18,"Trenton, Iowa, United States",0.8786381109280601,41.0617,-91.6374
2014-07-18,"Hiawatha, Iowa, United States",0.0,42.0358,-91.6821
2014-07-18,"Davenport Public Library, Iowa, United States",0.3210031057340196,41.5486,-90.5515
2014-07-18,"Burlington, Iowa, United States",1.86074429771909,40.8075,-91.1129
2014-07-18,"Blue Grass, Iowa, United States",4.58135860979463,41.5089,-90.766
2014-07-18,"Urbandale, Iowa, United States",0.8804232804232798,41.6267,-93.7122
2014-07-18,"Okoboji, Iowa, United States",0.32012805122048854,43.3864,-95.1483
2014-07-18,"Buena Vista County, Iowa, United States",0.895140664961635,42.7333,-95.1503
2014-07-18,"Camp Mitigwa, Iowa, United States",0.77720207253886,41.953,-93.9091
2014-07-18,"Ottumwa, Iowa, United States",0.3984663741622825,41.02,-92.4113
2014-07-18,"Marion County, Iowa, United States",2.89855072463768,41.3333,-93.1002
2014-07-18,"Coralville, Iowa, United States",1.31071703932151,41.6764,-91.5804
2014-07-18,"Muscatine, Iowa, United States",0.21139264113912648,41.4245,-91.0432
2014-07-18,"Montgomery County, Iowa, United States",0.520833333333335,41.0333,-95.1669
2014-07-18,"Des Moines, Iowa, United States",0.0696039767397543,41.6005,-93.6091
2014-07-18,"Cerro Gordo County, Iowa, United States",0.606060606060606,43.0833,-93.2669
2014-07-18,"Odebolt, Iowa, United States",0.4013613962192151,42.3122,-95.2505
2014-07-18,"Johnson County, Iowa, United States",0.05862646566164155,41.6667,-91.5335
2014-07-18,"Traer, Iowa, United States",4.471544715447155,42.1936,-92.4655
2014-07-18,"Tama School, Iowa, United States",0.3743315508021399,40.8767,-91.0563
2014-07-18,"Woodbury County, Iowa, United States",2.08333333333333,42.3833,-96.0336
2014-07-18,"Summit Farms, Iowa, United States",2.8348703112129,43.4561,-96.3278
2014-07-18,"Worth County, Iowa, United States",1.5625,43.3833,-93.2669
2014-07-18,"Dubuque County, Iowa, United States",0.0,42.4833,-90.8668
2014-07-18,"Tama County, Iowa, United States",0.69052102950408,42.0667,-92.5335
2014-07-18,"Charles City, Iowa, United States",0.987925356750823,43.0664,-92.6724
2014-07-18,"Oskaloosa, Iowa, United States",0.22071051258640917,41.2964,-92.6444
2014-07-18,"West Burlington, Iowa, United States",5.87155963302752,40.825,-91.1565
2014-07-18,"Central City, Iowa, United States",1.2016558387130987,42.2039,-91.5241
2014-07-18,"Alburnett, Iowa, United States",2.0726231330336238,42.1483,-91.6185
2014-07-18,"Mason City, Iowa, United States",0.024597918637653763,43.1536,-93.201
2014-07-18,"Forest City, Iowa, United States",1.42857142857143,43.2625,-93.6372
2014-07-18,"Sioux City, Iowa, United States",0.04543126584949094,42.5,-96.4003
2014-07-18,"City Of Oskaloosa, Iowa, United States",0.08948701431792225,41.2931,-92.6399
2014-07-18,"Mitchell County, Iowa, United States",0.987925356750823,43.35,-92.7835
2014-07-18,"Plymouth County, Iowa, United States",0.0,42.7333,-96.2336
2014-07-18,"Cedar Rapids, Iowa, United States",0.10569507465886521,42.0083,-91.6441
2014-07-18,"Cedar Falls, Iowa, United States",0.3648381161657119,42.5278,-92.4455
2014-07-18,"Mahaska County, Iowa, United States",2.41477272727273,41.3333,-92.6502
2014-07-18,"Scott County, Iowa, United States",0.0531374799104055,41.6334,-90.6335
2014-07-18,"Drake University, Iowa, United States",1.319095477386935,41.6014,-93.6519
2014-07-18,"Jordan Creek, Iowa, United States",1.0263278103068814,42.0261,-92.596
2014-07-17,"City Of Muscatine, Iowa, United States",1.62337662337662,41.4166,-91.071
2014-07-17,"Marshalltown, Iowa, United States",5.22875816993464,42.0494,-92.908
2014-07-17,"Northwestern College, Iowa, United States",5.04451038575668,42.998,-96.0536
2014-07-17,"Big Creek, Iowa, United States",0.8212560386473426,42.3836,-95.8575
2014-07-17,"College Springs, Iowa, United States",0.0,40.6192,-95.1208
2014-07-17,"Richland, Iowa, United States",1.52671755725191,41.1856,-91.993
2014-07-17,"Raccoon River, Iowa, United States",2.00803212851406,41.5794,-93.6122
2014-07-17,"Urbandale, Iowa, United States",0.64516129032258,41.6267,-93.7122
2014-07-17,"Fort Madison, Iowa, United States",0.4163915328963873,40.6298,-91.3151
2014-07-17,"Big Creek State Park, Iowa, United States",0.8212560386473424,41.8155,-93.7588
2014-07-17,"Arnold Park, Iowa, United States",2.39043824701195,42.0467,-92.9244
2014-07-17,"Anderson Dance Pavilion, Iowa, United States",2.39043824701195,42.4886,-96.4086
2014-07-17,"Sac County, Iowa, United States",1.78173719376392,42.3833,-95.1169
2014-07-17,"Camanche, Iowa, United States",0.1632575599775966,41.7881,-90.2562
2014-07-17,"Dallas County, Iowa, United States",0.3831417624521066,41.6833,-94.0502
2014-07-17,"Council Bluffs, Iowa, United States",1.75438596491228,41.2619,-95.8608
2014-07-17,"Cedar Rapids, Iowa, United States",0.06819037639800007,42.0083,-91.6441
2014-07-17,"Oskaloosa, Iowa, United States",1.7739277582372803,41.2964,-92.6444
2014-07-17,"Alburnett, Iowa, United States",4.95303878283973,42.1483,-91.6185
2014-07-17,"Mercy Hospital, Iowa, United States",0.316122233930453,41.6641,-91.5285
2014-07-17,"Cerro Gordo County, Iowa, United States",0.421940928270042,43.0833,-93.2669
2014-07-17,"Linn County, Iowa, United States",0.25769940306754174,42.0667,-91.6002
2014-07-17,"Sioux City, Iowa, United States",0.03979252118787707,42.5,-96.4003
2014-07-17,"Clinton County, Iowa, United States",0.3526002533446707,41.8834,-90.5501
2014-07-17,"Polk City, Iowa, United States",2.1883920076118,41.7714,-93.713
2014-07-17,"Rockwell City, Iowa, United States",0.1370567072126092,42.3953,-94.6339
2014-07-17,"Manilla, Iowa, United States",0.5830903790087459,41.8897,-95.2322
2014-07-17,"Muscatine, Iowa, United States",0.24313803686300314,41.4245,-91.0432
2014-07-17,"Okoboji, Iowa, United States",0.20202020202020202,43.3864,-95.1483
2014-07-17,"Burlington, Iowa, United States",-0.15399194503672145,40.8075,-91.1129
2014-07-17,"City Of Davenport, Iowa, United States",0.24691358024691365,41.5558,-90.6052
2014-07-17,"West Liberty, Iowa, United States",0.8695652173913034,41.57,-91.2638
2014-07-17,"Mason City, Iowa, United States",0.14876122471059178,43.1536,-93.201
2014-07-17,"Ottumwa, Iowa, United States",0.0632242040880224,41.02,-92.4113
2014-07-17,"Polk County, Iowa, United States",0.0,41.6833,-93.5835
2014-07-17,"Clear Lake, Iowa, United States",0.853658536585365,43.138,-93.3794
2014-07-17,"Webster County, Iowa, United States",0.44543429844098,42.4333,-94.1669
2014-07-17,"Jackson County, Iowa, United States",0.3763686948601517,42.1667,-90.5835
2014-07-17,"Peace Lutheran Church, Iowa, United States",1.281112737920935,43.4222,-96.172
2014-07-17,"Johnson County, Iowa, United States",0.2873563218390805,41.6667,-91.5335
2014-07-17,"Coon Rapids, Iowa, United States",0.29154518950437297,41.8708,-94.6775
2014-07-17,"Mount Vernon, Iowa, United States",0.5496453900709216,41.922,-91.4168
2014-07-17,"Grandview, Iowa, United States",0.75187969924812,41.2759,-91.1885
2014-07-17,"Des Moines, Iowa, United States",0.028540367873635945,41.6005,-93.6091
2014-07-17,"Cedar Falls, Iowa, United States",0.4331293371767539,42.5278,-92.4455
2014-07-17,"Scott County, Iowa, United States",-5.52584670231729,41.6334,-90.6335
2014-07-17,"Lee County, Iowa, United States",0.6226053639846749,40.65,-91.4835
2014-07-17,"Heritage Park, Iowa, United States",2.14067278287462,42.7355,-94.6686
2014-07-17,"Burlington Police Department, Iowa, United States",0.0,40.812,-91.1021
2014-07-17,"Hiawatha, Iowa, United States",0.9268292682926812,42.0358,-91.6821
2014-07-17,"Wapello County, Iowa, United States",0.2523883503551353,41.0333,-92.4169
2014-07-17,"Asbury Park, Iowa, United States",3.21888412017167,43.1489,-93.1619
2014-07-17,"Oakdale, Iowa, United States",0.03525264394829613,41.7064,-91.603
2014-07-17,"Fayette County, Iowa, United States",0.9576319433926268,42.8666,-91.8502
2014-07-17,"Fremont County, Iowa, United States",0.0,40.7506,-95.6003
2014-07-16,"Clayton County, Iowa, United States",0.384615384615385,42.8333,-91.3668
2014-07-16,"Scott County, Iowa, United States",0.4190097974325658,41.6334,-90.6335
2014-07-16,"Fort Dodge, Iowa, United States",1.761006289308175,42.4975,-94.168
2014-07-16,"Sioux City, Iowa, United States",0.06439838709666838,42.5,-96.4003
2014-07-16,"Masonville, Iowa, United States",0.04933084576849922,42.4794,-91.5913
2014-07-16,"Carroll County, Iowa, United States",2.4299065420560733,42.0333,-94.8836
2014-07-16,"Lincoln School, Iowa, United States",0.33373786407767,40.3914,-91.401
2014-07-16,"Clarke County, Iowa, United States",1.36986301369863,41.0333,-93.7836
2014-07-16,"Linn County, Iowa, United States",0.0926903080623885,42.0667,-91.6002
2014-07-16,"Oxford Junction, Iowa, United States",1.02219868362465,41.9836,-90.9563
2014-07-16,"Woodbury County, Iowa, United States",0.41023021633355466,42.3833,-96.0336
2014-07-16,"Coralville, Iowa, United States",0.32258064516129,41.6764,-91.5804
2014-07-16,"Fort Madison, Iowa, United States",1.0052302589616027,40.6298,-91.3151
2014-07-16,"Davis County Sheriff Office, Iowa, United States",0.342465753424658,40.7511,-92.4141
2014-07-16,"Hiawatha, Iowa, United States",1.9177427180652902,42.0358,-91.6821
2014-07-16,"Richland, Iowa, United States",1.45985401459854,41.1856,-91.993
2014-07-16,"Monona County, Iowa, United States",0.297029702970297,42.0333,-95.967
2014-07-16,"Ottumwa, Iowa, United States",0.12050981804269396,41.02,-92.4113
2014-07-16,"Thunder Ridge Mall, Iowa, United States",0.7142857142857134,42.538,-92.473
2014-07-16,"Princeton, Iowa, United States",0.13717421124828533,41.6748,-90.3404
2014-07-16,"Bloomington, Iowa, United States",0.08386814469078187,42.0561,-93.5874
2014-07-16,"Wapello, Iowa, United States",0.6463527239150499,41.1814,-91.1854
2014-07-16,"Monroe County, Iowa, United States",0.0816326530612244,41.0333,-92.8669
2014-07-16,"Kalona, Iowa, United States",1.75438596491228,41.4831,-91.706
2014-07-16,"Burlington Police Department, Iowa, United States",0.0,40.812,-91.1021
2014-07-16,"Mount Vernon, Iowa, United States",0.22628450182741217,41.922,-91.4168
2014-07-16,"Clinton School, Iowa, United States",4.45682451253482,40.9994,-93.4605
2014-07-16,"Danville, Iowa, United States",0.3676470588235301,40.8645,-91.3146
2014-07-16,"Sac City, Iowa, United States",0.76923076923077,42.4222,-94.9897
2014-07-16,"Mason City, Iowa, United States",0.16008436087877284,43.1536,-93.201
2014-07-16,"Willow Creek, Iowa, United States",1.48911798396334,40.9172,-94.6764
2014-07-16,"Johnson County, Iowa, United States",-0.41436464088398,41.6667,-91.5335
2014-07-16,"Des Moines, Iowa, United States",0.04163135028539634,41.6005,-93.6091
2014-07-16,"Cerro Gordo County, Iowa, United States",0.948275862068965,43.0833,-93.2669
2014-07-16,"Ottumwa Police Department, Iowa, United States",0.0676818950930626,41.0189,-92.4107
2014-07-16,"Forest City, Iowa, United States",4.75247524752475,43.2625,-93.6372
2014-07-16,"Wapello County, Iowa, United States",0.08474366792802158,41.0333,-92.4169
2014-07-16,"Grace Chapel, Iowa, United States",0.544959128065395,42.5119,-92.3863
2014-07-16,"Cedar Rapids, Iowa, United States",0.05797508944031591,42.0083,-91.6441
2014-07-16,"Hancock County, Iowa, United States",3.76569037656904,43.0833,-93.7169
2014-07-16,"Missouri Valley, Iowa, United States",2.26570545829042,41.5564,-95.8878
2014-07-16,"Crawford County, Iowa, United States",0.45045045045045007,42.0333,-95.3836
2014-07-16,"Altoona, Iowa, United States",0.714285714285714,41.6442,-93.4647
2014-07-16,"Clarinda Academy, Iowa, United States",0.82395498392283,40.7578,-95.0378
2014-07-16,"Clarinda Correctional Facility, Iowa, United States",3.29581993569132,40.7621,-95.0372
2014-07-16,"Louisa County, Iowa, United States",12.1863799283154,41.2334,-91.2668
2014-07-16,"Worth County, Iowa, United States",1.724137931034485,43.3833,-93.2669
2014-07-16,"Marshalltown, Iowa, United States",0.2801845560209591,42.0494,-92.908
2014-07-16,"University Of Dubuque, Iowa, United States",1.1608623548922068,42.4981,-90.6932
2014-07-16,"Hopeville, Iowa, United States",4.3859649122807,40.9428,-93.9966
2014-07-16,"Cedar Falls High School, Iowa, United States",0.995024875621891,42.5294,-92.461
2014-07-16,"Story County, Iowa, United States",2.55220417633411,42.0333,-93.4669
2014-07-16,"Clinton County, Iowa, United States",0.131233595800525,41.8834,-90.5501
2014-07-16,"Muscatine, Iowa, United States",0.680272108843537,41.4245,-91.0432
2014-07-16,"Rock Valley, Iowa, United States",1.2152777777777772,43.2053,-96.295
2014-07-16,"Algona, Iowa, United States",2.376237623762375,43.07,-94.233
2014-07-16,"Iowa City, Iowa, United States",7.37704918032787,41.6611,-91.5302
