year,city,lat,lon,Sum_LitersPerCapita,Sum_salesPerCapita,Avg_population
2012,ACKLEY,42.555534,-93.0529775,2.74610576923077,28.0426025641026,1560
2012,ADAIR,41.50043,-94.6433504,5.05470467032967,74.3717857142857,728
2012,ADEL,41.6144325,-94.017453,5.20873969375736,65.7791236749117,4245
2012,AFTON,41.0284183,-94.1975786,3.14423401688782,40.8816887816647,829
2012,AKRON,42.8288818,-96.5594773,1.2193275862069,15.4980689655172,1450
2012,ALBIA,41.0300078,-92.811307,6.03343562287804,74.9873282841473,3829
2012,ALDEN,42.5202571,-93.3760389,9.97802356020942,126.149947643979,764
2012,ALGONA,43.0699663,-94.233019,13.8236113345521,164.983307129799,5470
2012,ALLISON,42.7535847,-92.7952244,3.24363459669582,37.8306705539359,1029
2012,ALTA VISTA,43.1985819,-92.4171216,3.56704980842912,46.6025287356322,261
2012,ALTON,42.9874869,-96.0105735,12.878164556962,164.12355221519,1264
2012,ALTOONA,41.6435514,-93.4750836,8.98058425577014,121.372127296279,16984
2012,ALVORD,43.3420659,-96.3022407,0.349740932642487,3.96844559585492,193
2012,AMES,42.0307812,-93.6319131,8.23897073470643,111.884678911774,65060
2012,ANAMOSA,42.1083371,-91.2851594,11.3553803254708,131.462419089413,5469
2012,ANITA,41.4438761,-94.764146,5.5428870292887,64.7694037656904,956
2012,ANKENY,41.7317884,-93.6001278,4.6252841765908,62.335284863646,56764
2012,ANTHON,42.3883232,-95.8666772,17.4529876977153,261.576678383128,569
2012,ARLINGTON,42.7491501,-91.6712663,7.8634756097561,80.091487804878,410
2012,ARMSTRONG,43.3960697,-94.4783082,8.55705849268841,99.9064791901012,889
2012,ARNOLDS PARK,43.3727408,-95.1238841,20.228017828201,287.608995137763,1234
2012,ATLANTIC,41.4036007,-95.0138776,11.8511378603834,153.974885116347,6833
2012,AUDUBON,41.7180421,-94.9324868,6.47135597421914,68.8675954387705,2017
2012,AVOCA,41.4766571,-95.3380549,15.1452127659574,213.228829787234,1504
2012,BALDWIN,42.0741832,-90.8415301,20.1077830188679,240.46358490566,106
2012,BANCROFT,43.2927386,-94.2180192,28.4295084507042,384.469929577465,710
2012,BAXTER,41.8260998,-93.1515905,2.39301903898459,28.0646509519492,1103
2012,BEDFORD,40.666932,-94.721358,3.63494699646643,44.4869893992933,1415
2012,BELLE PLAINE,41.8955529,-92.2757404,8.12888888888889,101.685652525253,2475
2012,BELLEVUE,42.2588936,-90.4257531,9.02528722426471,120.682840073529,2176
2012,BELMOND,42.84608,-93.6140991,5.74403630077788,73.9433232497839,2314
2012,BETTENDORF,41.56085,-90.48344,9.46195699197296,142.306888043937,35505
2012,BEVINGTON,41.3605472,-93.7907776,46.8483870967742,681.051290322581,62
2012,BLOOMFIELD,40.7516884,-92.4149074,3.08377913641574,33.0405617118838,2617
2012,BLUE GRASS,41.5089194,-90.7659767,3.17049522673031,37.243192124105,1676
2012,BONDURANT,41.7019329,-93.4607681,0.500530424339472,7.36705564451561,4996
2012,BOONE,42.0597047,-93.8802273,6.87934777812796,83.3584139615506,12692
2012,BRITT,43.0977399,-93.8018875,5.52480993411049,51.6076178408515,1973
2012,BROOKLYN,41.7315717,-92.4453638,5.71533450704225,70.8690633802817,1420
2012,BUFFALO,41.4555873,-90.7209746,2.06431870669746,27.326766743649,1299
2012,BUFFALO CENTER,43.3857909,-93.9466193,5.04285363128492,58.5737541899441,895
2012,BURLINGTON,40.8076529,-91.1128901,7.52536509248327,98.962191656828,25410
2012,BUSSEY,41.2066696,-92.8840881,4.25048780487805,42.4656585365854,410
2012,CAMANCHE,41.7853085,-90.2529064,1.52129693618982,18.969191430546,4341
2012,CAMBRIDGE,41.8983187,-93.5291019,2.58109013398295,33.6150669914738,821
2012,CARROLL,42.0655986,-94.8672793,16.1662503009631,212.980512640449,9968
2012,CARTER LAKE,41.2905534,-95.9180689,0.918339488261672,12.8919388024268,3791
2012,CASCADE,42.2986159,-91.0148618,4.46785557023338,53.374117129018,2271
2012,CASEY,41.5047095,-94.5183037,3.85808457711443,56.2253731343284,402
2012,CEDAR FALLS,42.5348993,-92.4453161,8.33109826687674,115.775538964974,41255
2012,CEDAR RAPIDS,41.9778795,-91.6656232,9.85092320846593,134.466146083356,130405
2012,CENTER POINT,42.1908265,-91.7851772,2.75660452201507,27.7795081316938,2521
2012,CENTERVILLE,40.7290565,-92.8738196,9.42705714817572,118.692782948622,5372
2012,CENTRAL CITY,42.2038829,-91.5240561,4.07909771473601,45.3824980299448,1269
2012,CHARITON,41.0199996,-93.3140985,5.2141077361177,63.9317774086379,4214
2012,CHARLES CITY,43.0663612,-92.6724112,10.5154729711603,127.998222669349,7455
2012,CHEROKEE,42.7496413,-95.5515431,11.2340512922465,135.458916500994,5030
2012,CHESTER,43.4910768,-92.360449,9.324,119.81328,125
2012,CLARINDA,40.7419352,-95.038313,5.68561351052049,75.0181100036914,5418
2012,CLARION,42.7316387,-93.732992,3.7428623057463,43.7835308998916,2767
2012,CLARKSVILLE,42.7847,-92.6676907,1.63126330731015,18.3082611781405,1409
2012,CLEAR LAKE,43.1435564,-93.3788108,16.784652173913,212.791617918314,7590
2012,CLINTON,41.8444735,-90.1887379,8.43154680785758,108.980963781461,26064
2012,CLIVE,41.6060873,-93.77236,4.49325162179229,57.4455387794937,17419
2012,COLESBURG,42.6394355,-91.2020781,6.07959697732997,73.0888161209068,397
2012,COLFAX,41.6770762,-93.2451249,4.74872013651877,52.8763676255485,2051
2012,COLO,42.0177653,-93.3152072,2.78815331010453,35.7238327526132,861
2012,COLUMBUS JUNCTION,41.2786364,-91.3598775,5.53729838709677,74.7537634408602,1860
2012,CONRAD,42.2247077,-92.8746455,3.92852272727273,46.1193272727273,1100
2012,COON RAPIDS,41.8708192,-94.6774786,2.34775413711584,27.3699290780142,1269
2012,CORALVILLE,41.6822756,-91.5960643,13.866387810559,225.675318322981,20608
2012,CORNING,40.9869306,-94.7335843,9.17959336369551,114.884814573845,1537
2012,CORYDON,40.7569499,-93.3188229,7.50933102580239,101.784870988043,1589
2012,COUNCIL BLUFFS,41.2619444,-95.8608333,9.51244677859961,134.399290221576,62597
2012,CRESCO,43.3813568,-92.1140547,14.5153339420819,177.533386381424,3833
2012,CRESTON,41.0586002,-94.3613474,8.44616437484085,104.031883116883,7854
2012,DAKOTA CITY,42.7221935,-94.1971836,0.699015990159902,9.83520295202952,813
2012,DAVENPORT,41.5236437,-90.5776367,8.87532858591176,124.673111072118,102582
2012,DAYTON,42.2613645,-94.0685672,4.91763784461153,57.7227443609023,798
2012,DE SOTO,41.5315745,-94.0077785,4.80025252525252,67.1658677685951,1089
2012,DE WITT,41.8239952,-90.5389662,4.57263449065242,49.0906524227394,5242
2012,DECORAH,43.3033056,-91.7857092,11.6258688503857,148.088845326926,7907
2012,DELMAR,42.0022453,-90.6070804,1.58336653386454,19.7211155378486,502
2012,DENISON,42.024988,-95.3588867,11.1796457883369,139.528656107511,8334
2012,DENVER,42.6713718,-92.3374045,4.15435967302452,47.8723651226158,1835
2012,DES MOINES,41.6005448,-93.6091064,9.63925206580136,146.453029382399,210330
2012,DONNELLSON,40.6428152,-91.5646028,1.59189789123196,22.0915871254162,901
2012,DOWS,42.656564,-93.5010558,3.28891050583658,35.4498443579767,514
2012,DUBUQUE,42.5005583,-90.6645718,9.04820199323118,122.224120138098,58799
2012,DUMONT,42.748585,-92.9724184,3.51993620414673,34.4065071770335,627
2012,DUNLAP,41.8543292,-95.6019662,8.36980962128966,122.729744114637,977
2012,DURANT,41.5997498,-90.9107037,3.05017896475771,33.322813876652,1816
2012,DYERSVILLE,42.4836415,-91.1140899,9.59334562321598,101.904978591817,4204
2012,DYSART,42.171659,-92.3062978,2.40177252584934,29.9164697193501,1354
2012,EAGLE GROVE,42.6641396,-93.9044473,6.69713366481427,78.5230535244224,3419
2012,EARLY,42.4613706,-95.1519373,0.925751879699248,15.6018045112782,532
2012,EDDYVILLE,41.1605646,-92.6313031,2.02890316205534,27.6704743083004,1012
2012,EDGEWOOD,42.6444313,-91.4012515,4.18742791234141,48.0803575547866,867
2012,ELDORA,42.3680382,-93.1057576,8.52795151739453,94.4166654330126,2702
2012,ELDRIDGE,41.6580864,-90.5845822,4.88608392169448,59.3885558408216,6232
2012,ELLSWORTH,42.3124934,-93.5787757,8.08217092337918,98.6752062868369,509
2012,ELMA,43.2466362,-92.4360102,6.84499072356215,89.9686456400742,539
2012,ELY,41.8736182,-91.585175,1.07493972999036,13.6314320154291,2074
2012,EMMETSBURG,43.1127427,-94.6830357,12.0834295460509,146.020519548675,3811
2012,ESTHERVILLE,43.4013478,-94.8391532,7.87137664282149,93.4467426384961,6011
2012,EVANSDALE,42.4691543,-92.281017,6.85614733998337,87.6546134663341,4812
2012,EVERLY,43.1616378,-95.3280572,1.19836488812392,12.9011359724613,581
2012,EXIRA,41.591156,-94.8763141,2.49041878172589,29.6620050761421,788
2012,FAIRBANK,42.6391512,-92.0471199,5.53918979409132,64.9228111011638,1117
2012,FAIRFIELD,41.0076114,-91.9636914,5.56122169429842,74.2923665588354,9892
2012,FARLEY,42.4444448,-91.0051339,0.8352010644589,10.5809166173862,1691
2012,FARMINGTON,40.6403124,-91.7429429,3.15258089368259,40.3337134052388,649
2012,FAYETTE,42.8419255,-91.8021071,4.09215291750503,54.1198390342052,1491
2012,FLOYD,43.1277502,-92.7363031,17.8410823170732,232.545518292683,328
2012,FONDA,42.5813666,-94.8460957,2.02586490939045,25.096705107084,607
2012,FONTANELLE,41.2897097,-94.5616359,7.58962264150943,91.4156289308176,636
2012,FOREST CITY,43.2624685,-93.6371937,10.0597882030861,116.019318068691,4018
2012,FORT ATKINSON,43.1433068,-91.9326637,20.4352678571428,242.811101190476,336
2012,FORT DODGE,42.4974694,-94.1680158,9.79961868635644,124.671512434582,24649
2012,FORT MADISON,40.6297634,-91.314535,7.35843650275263,93.5935131100121,10717
2012,FREDERICKSBURG,42.9652547,-92.1996196,4.33145336225597,42.2538503253796,922
2012,GARNAVILLO,42.8685981,-91.2359644,2.00454545454545,23.0808402203857,726
2012,GARNER,43.1023343,-93.6020858,4.40376569037657,49.9032442870937,3107
2012,GEORGE,43.3438624,-96.0022431,3.1760663507109,36.0894218009479,1055
2012,GILMORE CITY,42.7294176,-94.4477507,3.01318737270876,36.357250509165,491
2012,GLADBROOK,42.1877647,-92.715199,3.82415730337079,39.5546179775281,890
2012,GLENWOOD,41.0469437,-95.7425056,5.24434608794974,59.7254064344185,5253
2012,GLIDDEN,42.0569297,-94.72887,1.3120230700976,16.9969565217391,1127
2012,GOLDFIELD,42.7349711,-93.9149462,2.01118421052632,23.7104605263158,608
2012,GOWRIE,42.2806289,-94.2907762,3.84522022022022,37.9465265265265,999
2012,GRAND JUNCTION,42.0313859,-94.2371186,2.04242712294043,26.9948162230672,789
2012,GRAND MOUND,41.8247927,-90.6476151,5.63622366288493,64.1166612641815,617
2012,GREENE,42.8958066,-92.8024158,3.18928571428571,33.9098839285714,1120
2012,GREENFIELD,41.3052657,-94.4613543,5.56460435475305,65.152575677111,1883
2012,GRIMES,41.6883646,-93.7925199,6.88681641064069,92.1822583364556,10676
2012,GRINNELL,41.7434092,-92.7232456,7.56639798709113,100.623093753419,9141
2012,GRISWOLD,41.234991,-95.1374929,3.02037601626016,33.8193902439024,984
2012,GRUNDY CENTER,42.3616501,-92.7685327,5.92942151805453,70.8265880619012,2714
2012,GUTHRIE CENTER,41.6772087,-94.5033044,4.77286847323199,55.9931658955717,1513
2012,GUTTENBERG,42.7899897,-91.1029068,2.90882590005373,41.6048361096185,1861
2012,HAMBURG,40.6044458,-95.6577711,1.26270794824399,17.3693068391867,1082
2012,HAMPTON,42.7425009,-93.2103402,8.95607249417249,108.839456876457,4290
2012,HARLAN,41.653044,-95.3255541,10.5524878048781,139.493162734906,5002
2012,HARTLEY,43.1802719,-95.4770511,8.06653898514852,91.7223886138614,1616
2012,HAWARDEN,42.9963772,-96.4891976,4.4203645629165,50.4301058408467,2551
2012,HIAWATHA,42.0491958,-91.6815252,2.58921377969162,32.7080247256563,7199
2012,HOLSTEIN,42.4891531,-95.545003,14.3735815959741,194.787778576564,1391
2012,HOLY CROSS,42.6005516,-90.9956854,16.5354330708661,226.653700787402,381
2012,HUBBARD,42.3055396,-93.3002055,5.08558153477218,53.9718345323741,834
2012,HUDSON,42.406653,-92.4554671,0.421472070558589,5.53438051238975,2381
2012,HUMBOLDT,42.7208047,-94.2152402,10.8040143603133,132.34706483899,4596
2012,HUXLEY,41.895265,-93.6007732,0.676611990950227,8.83537613122172,3536
2012,IDA GROVE,42.3462987,-95.4716235,7.26390197926484,79.7644816211121,2122
2012,INDEPENDENCE,42.4685978,-91.8893386,9.87775796284008,122.793929993364,6028
2012,INDIANOLA,41.3580484,-93.5574376,7.11626094265209,92.3232488523954,15467
2012,INWOOD,43.3072022,-96.4319799,4.82515413070284,71.3892231812577,811
2012,IOWA CITY,41.6611277,-91.5301683,8.80187849636217,126.19307572083,74220
2012,IOWA FALLS,42.5198868,-93.2645741,12.0800109720885,158.620729547642,5195
2012,IRETON,42.97471,-96.3183585,1.4468438538206,20.2907641196013,602
2012,JEFFERSON,42.0172457,-94.3774232,4.96125166508088,61.7892435775452,4204
2012,JESUP,42.475543,-92.0637884,3.08030700112317,38.4627592661924,2671
2012,JEWELL JUNCTION,42.306818,-93.6400274,1.46861836562763,17.5645324347094,1187
2012,JOHNSTON,41.6709834,-93.7130493,4.374342676441,61.2145110440324,20871
2012,KELLOGG,41.7180533,-92.9077629,3.9386402027027,52.8562162162162,592
2012,KEOKUK,40.4044731,-91.3963966,12.2937061928551,163.87358752003,10609
2012,KEOSAUQUA,40.7303057,-91.9623949,13.12151531151,172.850464625132,947
2012,KEOTA,41.3639015,-91.9537859,1.96005154639175,19.7530515463918,970
2012,KINGSLEY,42.588324,-95.9675165,3.96678008595989,43.3190830945559,1396
2012,KNOXVILLE,41.320343,-93.09967,7.63242963576159,94.6559795805739,7248
2012,LA PORTE CITY,42.3149911,-92.1921275,5.03085152838428,64.7800698689957,2290
2012,LAKE CITY,42.2674828,-94.7338704,6.82065868263473,77.9916047904191,1670
2012,LAKE MILLS,43.419329,-93.5325269,4.34688203883495,52.7820339805825,2060
2012,LAKE PARK,43.4532977,-95.3225004,2.07036059806508,26.115092348285,1137
2012,LAKE VIEW,42.3116499,-95.053324,15.4306444444444,192.493208888889,1125
2012,LAMONI,40.622777,-93.9341158,2.25723905723906,31.6423063973064,2376
2012,LANSING,43.3609053,-91.218768,10.6534877529287,125.917135250266,939
2012,LARCHWOOD,43.4535861,-96.434205,13.7849887133183,195.955112866817,886
2012,LAURENS,42.8466398,-94.8519296,10.1043644067797,110.660398305085,1180
2012,LAWLER,43.0695607,-92.1557563,13.3018912529551,186.891867612293,423
2012,LE CLAIRE,41.5975061,-90.3462215,5.94983877448518,118.711371170266,3982
2012,LE GRAND,42.0069336,-92.7754761,4.50055496828753,57.1002114164905,946
2012,LE MARS,42.7941567,-96.1655778,10.1699289007274,131.812211863539,9761
2012,LENOX,40.8816547,-94.5619095,2.29449458483755,25.4190902527076,1385
2012,LEON,40.739724,-93.7477217,3.18026799789806,40.7152601156069,1903
2012,LISBON,41.9211198,-91.3854466,0.744482288828338,9.2639055404178,2202
2012,LOGAN,41.6430472,-95.7891614,4.04334470989761,46.2081433447099,1465
2012,LOVILIA,41.1358371,-92.9040881,0.527360308285164,8.71722543352601,519
2012,MADRID,41.8779511,-93.8156689,2.4494300618238,27.7246831530139,2588
2012,MALVERN,41.006292,-95.5851456,1.7617054610564,21.3022202327663,1117
2012,MANCHESTER,42.4857853,-91.4579698,13.1196678493988,168.673920756949,5073
2012,MANNING,41.9091382,-95.0651328,5.10510054347826,64.3024864130435,1472
2012,MANSON,42.5291439,-94.5341421,6.72582043343653,78.3200557275542,1615
2012,MAPLETON,42.1658227,-95.7930621,15.055686985173,196.621911037891,1214
2012,MAQUOKETA,42.0689088,-90.6656914,11.5081983636667,136.330272165637,5989
2012,MARCUS,42.8272084,-95.8077912,2.38359813084112,28.1457196261682,1070
2012,MARENGO,41.7927817,-92.0696253,10.5895145244727,112.291333068046,2513
2012,MARION,42.033279,-91.5968958,4.47396485400482,56.6985362978837,37330
2012,MARSHALLTOWN,42.0494674,-92.9080375,7.23728816075308,95.7629326574945,27620
2012,MASON CITY,43.1535728,-93.2010367,11.1870941314039,135.926284805964,27366
2012,MAXWELL,41.8919322,-93.3996546,2.35433369447454,29.3984940411701,923
2012,MCGREGOR,43.0246813,-91.1812468,5.93903456495828,89.1788438617401,839
2012,MECHANICSVILLE,41.9027909,-91.2546067,1.55509927797834,21.6877527075812,1108
2012,MEDIAPOLIS,41.0080904,-91.1640369,5.28988246505718,69.0113468869123,1574
2012,MELBOURNE,41.9413772,-93.1032569,1.16263603385732,12.700338573156,827
2012,MELCHER-DALLAS,41.2249966,-93.2413191,7.26805162827641,105.502343129468,1259
2012,MILFORD,43.3246863,-95.149996,27.9277750165673,355.564930417495,3018
2012,MISSOURI VALLEY,41.5563713,-95.8877767,6.06255435992579,77.4845714285714,2695
2012,MONONA,43.0516494,-91.3893041,7.91203333333333,98.37272,1500
2012,MONROE,41.5208256,-93.1038129,2.75853358820317,32.6230365920262,1831
2012,MONTEZUMA,41.585834,-92.5274091,12.8608079376329,170.367391920624,1411
2012,MONTICELLO,42.2383351,-91.1870937,11.2422258823529,126.318026143791,3825
2012,MORAVIA,40.8916777,-92.8190852,5.54782270606532,77.2263608087092,643
2012,MOUNT AYR,40.7147147,-94.235232,6.38170225385528,77.4789323843417,1686
2012,MOUNT PLEASANT,40.9716959,-91.5487714,8.4765682438041,112.80156053599,8433
2012,MOUNT VERNON,41.9219522,-91.4168371,40.9326587160054,563.169159607668,4486
2012,MURRAY,41.0417646,-93.9493246,0.15969387755102,1.97534693877551,735
2012,MUSCATINE,41.424473,-91.0432051,8.04521140687583,104.709537299733,23968
2012,NASHUA,42.9522221,-92.5386382,0.45712523133868,5.78570018507094,1621
2012,NEOLA,41.4488816,-95.6155615,3.19016821345708,45.3033294663573,862
2012,NEVADA,42.0227184,-93.4523014,4.98456302151954,61.8343083003953,6831
2012,NEW HAMPTON,43.0592724,-92.317864,6.39686529548088,71.0462340672074,3452
2012,NEW VIRGINIA,41.1822168,-93.7288305,5.24747422680412,71.698412371134,485
2012,NEWTON,41.7033177,-93.0573533,7.49653461157025,96.0086743801653,15125
2012,NORA SPRINGS,43.1427466,-93.0043668,1.55649748020158,16.8563354931606,1389
2012,NORTH ENGLISH,41.5138978,-92.0762891,7.77617416829745,70.2969080234834,1022
2012,NORTH LIBERTY,41.739482,-91.6080974,5.20980497143934,75.5618630343356,15931
2012,NORTHWOOD,43.4441245,-93.2210371,6.98511278195489,83.3945714285714,1995
2012,NORWALK,41.475546,-93.6788304,3.20551060680809,38.832244696596,10135
2012,OAKLAND,41.3094375,-95.3957997,5.24628400796284,61.6066489714665,1507
2012,OELWEIN,42.6784949,-91.9119586,8.94059271899886,105.609049244271,6153
2012,OGDEN,42.0395595,-94.0320167,3.49751347378736,41.8771827535522,2041
2012,OKOBOJI,43.3863521,-95.1483293,3.05999388753056,36.751369193154,818
2012,ONAWA,42.0266548,-96.0972376,7.49785699409927,94.3242311697327,2881
2012,ORANGE CITY,43.0072087,-96.0583523,3.03313568893191,39.7983817360439,6198
2012,OSAGE,43.2841382,-92.8190838,5.32862616310892,61.3840284619595,3654
2012,OSCEOLA,41.0342618,-93.766759,8.05710478680611,101.314444891392,4972
2012,OSKALOOSA,41.2916728,-92.6493595,8.00173748599983,104.650896011028,11607
2012,OSSIAN,43.145809,-91.7632108,7.02594627594627,93.395177045177,819
2012,OTHO,42.4246934,-94.1502372,2.68425572519084,31.0964503816794,524
2012,OTTUMWA,41.0160293,-92.4083022,7.03566284925276,92.6923838531514,24624
2012,PACIFIC JUNCTION,41.0187126,-95.8010851,10.6300415754923,154.694157549234,457
2012,PALO,42.0660485,-91.7961118,5.91680911680912,78.7067236467237,1053
2012,PANORA,41.6916535,-94.3630215,12.5666589861751,158.301889400922,1085
2012,PARKERSBURG,42.5774797,-92.7868634,4.84706632653061,50.7041173469388,1960
2012,PAULLINA,42.9791479,-95.6880657,8.03038348082596,89.919331366765,1017
2012,PELLA,41.4080327,-92.916405,5.68144494837402,77.3197066486538,10363
2012,PEOSTA,42.4491375,-90.8504116,0.952564894932015,12.7424227441286,1618
2012,PERRY,41.8385964,-94.1071797,5.56791939671158,67.0766510075411,8089
2012,PLEASANT HILL,41.5873903,-93.5196138,5.38386557869873,68.8170581919691,9314
2012,PLEASANTVILLE,41.3869578,-93.2682683,2.72884961054524,32.3234092270821,1669
2012,POCAHONTAS,42.7355299,-94.6691467,10.4879885057471,110.209689655172,1740
2012,POLK CITY,41.7713764,-93.7129997,1.36934998843396,18.494052741152,4323
2012,POMEROY,42.5510885,-94.6838687,1.1088,15.250368,625
2012,POSTVILLE,43.084702,-91.5682015,1.92823791647114,22.0853636790239,2131
2012,PRAIRIE CITY,41.599434,-93.2352053,0.949341720304272,12.4875892334699,1709
2012,PRESTON,42.0502844,-90.3960275,2.75915132924335,35.5344580777096,978
2012,PRIMGHAR,43.0869215,-95.627232,8.45270193401593,102.353959044369,879
2012,RED OAK,41.0170937,-95.2214477,8.11757492690059,99.9728947368421,5472
2012,REINBECK,42.323597,-92.5993615,1.77638804148871,19.3312751677852,1639
2012,REMSEN,42.8125933,-95.9733503,6.8702512254902,87.8384129901961,1632
2012,RICEVILLE,43.3638571,-92.5540687,3.64537037037037,40.6238888888889,810
2012,RIVERSIDE,41.4797413,-91.5812759,10.7695454545455,166.99243062201,1045
2012,ROCK RAPIDS,43.4271945,-96.1758598,8.18786664104535,102.07784396618,2602
2012,ROCK VALLEY,43.2052594,-96.2950263,3.49427971838614,42.625098835635,3693
2012,ROCKWELL,42.985244,-93.1918688,8.53299803729146,97.60558390579,1019
2012,ROCKWELL CITY,42.3952576,-94.6338671,4.25937645959832,43.1354273703877,2141
2012,RUTHVEN,43.1291322,-94.8991531,4.86505681818182,47.4281676136364,704
2012,SAC CITY,42.4222033,-94.9897109,12.6709804104478,147.772756529851,2144
2012,SANBORN,43.1816421,-95.6555674,4.46005415162455,54.0132129963899,1385
2012,SCHALLER,42.4997048,-95.2930523,1.89580536912752,18.759744966443,745
2012,SCHLESWIG,42.1652658,-95.4369432,9.84988649262202,141.644426787741,881
2012,SCRANTON,42.0224844,-94.5452524,3.11481132075472,40.9571886792453,530
2012,SERGEANT BLUFF,42.4029802,-96.3588424,2.42445796460177,28.295046460177,4520
2012,SHEFFIELD,42.8944129,-93.2118688,1.57837719298246,17.5661754385965,1140
2012,SHELDON,43.1812107,-95.8569539,13.7124791666667,172.201591981132,5088
2012,SHELLSBURG,42.0945385,-91.8693231,6.07192429022082,71.8423028391167,951
2012,SHENANDOAH,40.7667389,-95.3761506,11.5500858394742,152.755668193587,5021
2012,SIBLEY,43.3999861,-95.7516395,6.94915667166417,82.4351611694153,2668
2012,SIGOURNEY,41.3333445,-92.2046255,4.54428927680798,51.8863990024938,2005
2012,SIOUX CENTER,43.0797991,-96.1756935,6.41316512531832,81.5322275834339,7461
2012,SIOUX CITY,42.4999942,-96.4003069,7.09617883145579,98.6071059272407,82821
2012,SIOUX RAPIDS,42.8933093,-95.1511051,9.546138996139,110.359407979408,777
2012,SLATER,41.8778194,-93.6821269,2.40101261620186,31.8475365205843,1506
2012,SLOAN,42.2337584,-96.2244905,4.88748723186925,60.516935648621,979
2012,SOLON,41.8072344,-91.4940604,4.55689587426326,59.1653123772102,2545
2012,SPENCER,43.1450748,-95.144318,11.007131377096,126.199707456297,11212
2012,SPIRIT LAKE,43.4226192,-95.1022313,34.6062275807095,433.296080111598,5018
2012,ST. ANSGAR,43.3784811,-92.9203887,12.5994809688581,152.6573183391,1156
2012,ST. LUCAS,43.0665745,-91.9332498,35.1394927536232,449.802753623188,138
2012,STATE CENTER,42.0166544,-93.1635365,3.28479591836735,37.142380952381,1470
2012,STORM LAKE,42.6430359,-95.2019399,11.0468950504125,144.667945921173,10910
2012,STORY CITY,42.1871601,-93.5955532,4.08226439790576,45.9794531704479,3438
2012,STRATFORD,42.2713655,-93.9271721,4.87931034482759,58.0917379310345,725
2012,STRAWBERRY POINT,42.6835955,-91.5340348,4.76638349514563,52.226359223301,1236
2012,STUART,41.5034243,-94.3183715,8.6689138576779,108.347446941323,1602
2012,SULLY,41.5783288,-92.8449164,1.40568734793187,21.0445133819951,822
2012,SUMNER,42.8474801,-92.0915633,3.8727849676456,45.960881035341,2009
2012,SUTHERLAND,42.9741434,-95.4975058,5.19308252427184,54.4302265372168,618
2012,SWEA CITY,43.384403,-94.3149681,6.48445297504798,85.1525143953935,521
2012,SWISHER,41.8458406,-91.693232,6.1711558854719,145.731357370095,943
2012,TIFFIN,41.7069149,-91.6632783,1.45541964621754,22.6480391418893,2657
2012,TIPTON,41.7697434,-91.1279349,7.399875,87.46250625,3200
2012,TOLEDO,41.9972134,-92.5835266,15.1038960036331,188.908292461399,2202
2012,TRAER,42.1936007,-92.4654688,4.28776435045317,47.5352628398792,1655
2012,TREYNOR,41.2324965,-95.6130608,1.61846113445378,21.6855042016807,952
2012,TRIPOLI,42.8080363,-92.2582341,14.1019001490313,173.375402384501,1342
2012,URBANA,42.2241596,-91.8743444,1.62801576422207,21.8880054832077,1459
2012,URBANDALE,41.6266555,-93.7121656,2.84942526440016,41.7012026235759,44062
2012,VAN METER,41.5333223,-93.9543949,1.19713222416813,17.0503064798599,1142
2012,VILLISCA,40.9296034,-94.9766416,0.665829145728643,8.81846733668342,1194
2012,VINTON,42.1646477,-92.0185651,5.09056915306915,55.9163655788656,5148
2012,WALKER,42.2866572,-91.7807299,1.73106060606061,24.3841666666667,792
2012,WALNUT,41.4774899,-95.2219405,3.41829896907216,48.2105798969072,776
2012,WAPELLO,41.1814193,-91.1854273,4.35187408133268,48.7340617344439,2041
2012,WASHINGTON,41.3014077,-91.6916417,10.4111197354212,141.091931695464,7408
2012,WATERLOO,42.492786,-92.3425775,10.0703982763658,143.54872597137,68460
2012,WAUKEE,41.6119903,-93.8855768,1.43798051606108,19.5832359136388,18990
2012,WAUKON,43.2694208,-91.475695,13.8148688436831,166.045861884368,3736
2012,WAVERLY,42.7272032,-92.4668511,10.4886202066362,131.088038942976,10066
2012,WEBSTER CITY,42.4694321,-93.8159149,7.42090158689532,87.2711108267213,7814
2012,WELLMAN,41.4641806,-91.8382273,4.8575821104123,57.903535988819,1431
2012,WELLSBURG,42.4328011,-92.9250864,2.15654506437768,25.004034334764,699
2012,WESLEY,43.0886148,-93.9931467,44.0782860892388,545.937716535433,381
2012,WEST BEND,42.9600447,-94.4450576,15.8521765480896,173.62581027668,759
2012,WEST BRANCH,41.6714086,-91.3465521,2.59714377406932,30.0168934531451,2337
2012,WEST BURLINGTON,40.8250386,-91.1565357,12.3910567771579,151.064913029209,3047
2012,WEST DES MOINES,41.5772115,-93.711332,10.0600244724159,156.009635955266,64113
2012,WEST LIBERTY,41.5700231,-91.2637695,2.31579935622318,32.5281598712446,3728
2012,WEST POINT,40.7167039,-91.4501542,15.3303014553015,230.176029106029,962
2012,WEST UNION,42.9627564,-91.8082167,9.9664798671648,117.922299709423,2409
2012,WHITTEMORE,43.0634809,-94.4221252,4.86305894308943,67.7423577235772,492
2012,WILLIAMSBURG,41.6611187,-92.0090673,8.09902503912363,103.211029733959,3195
2012,WILTON,41.5889154,-91.0168179,2.25539215686275,24.7367700534759,2805
2012,WINDSOR HEIGHTS,41.6038268,-93.7105118,85.8452955614645,1207.53998159133,4889
2012,WINTERSET,41.3308237,-94.0138393,8.17969030139103,101.025284003091,5176
2012,WINTHROP,42.4733189,-91.7343327,7.51442873969376,97.3579034157833,849
2012,WOODBINE,41.7340073,-95.7074104,3.67580872011252,50.7524120956399,1422
2012,WOODWARD,41.857276,-93.9222218,1.53872255489022,19.9645974717232,1503
2013,ACKLEY,42.555534,-93.0529775,3.19605769230769,33.1446346153846,1560
2013,ADAIR,41.50043,-94.6433504,3.55027472527473,54.7020192307692,728
2013,ADEL,41.6144325,-94.017453,6.27073616018846,77.4495170789164,4245
2013,AFTON,41.0284183,-94.1975786,3.58501206272618,47.3838480096502,829
2013,AKRON,42.8288818,-96.5594773,1.56474137931035,19.3105931034483,1450
2013,ALBIA,41.0300078,-92.811307,5.15876860799164,67.2633220161922,3829
2013,ALDEN,42.5202571,-93.3760389,9.55274869109948,120.028259162304,764
2013,ALGONA,43.0699663,-94.233019,13.5544515539305,163.734138939671,5470
2013,ALLISON,42.7535847,-92.7952244,4.43061224489796,49.3027113702624,1029
2013,ALTA VISTA,43.1985819,-92.4171216,2.30268199233717,29.1795402298851,261
2013,ALTON,42.9874869,-96.0105735,10.739102056962,144.672950949367,1264
2013,ALTOONA,41.6435514,-93.4750836,9.05472945124824,123.753923692887,16984
2013,AMES,42.0307812,-93.6319131,7.75952082692899,108.161279280664,65060
2013,ANAMOSA,42.1083371,-91.2851594,10.5528570122509,126.344167123789,5469
2013,ANITA,41.4438761,-94.764146,6.31087866108787,74.3131066945607,956
2013,ANKENY,41.7317884,-93.6001278,4.97833970474244,69.9665594390812,56764
2013,ANTHON,42.3883232,-95.8666772,15.478295254833,227.24618629174,569
2013,ARLINGTON,42.7491501,-91.6712663,7.75719512195122,81.8682926829269,410
2013,ARMSTRONG,43.3960697,-94.4783082,4.16408886389201,50.9165691788526,889
2013,ARNOLDS PARK,43.3727408,-95.1238841,22.6659238249595,330.013030794165,1234
2013,ATLANTIC,41.4036007,-95.0138776,11.1373591394702,144.162903556271,6833
2013,AUDUBON,41.7180421,-94.9324868,5.86685671789787,65.7813832424393,2017
2013,AURELIA,42.71276,-95.4366701,0.604259072580645,8.19383064516129,992
2013,AVOCA,41.4766571,-95.3380549,16.4588098404255,233.421768617021,1504
2013,BALDWIN,42.0741832,-90.8415301,21.689858490566,260.165943396226,106
2013,BANCROFT,43.2927386,-94.2180192,29.963123943662,426.013873239437,710
2013,BAXTER,41.8260998,-93.1515905,2.41792837715322,27.7440253853128,1103
2013,BEDFORD,40.666932,-94.721358,3.48908127208481,44.3102402826855,1415
2013,BELLE PLAINE,41.8955529,-92.2757404,8.7759393939394,113.101406060606,2475
2013,BELLEVUE,42.2588936,-90.4257531,9.24443933823529,126.332982536765,2176
2013,BELMOND,42.84608,-93.6140991,5.19862791702679,64.4500475367329,2314
2013,BETTENDORF,41.56085,-90.48344,9.03356076608929,139.669676665258,35505
2013,BEVINGTON,41.3605472,-93.7907776,49.1435483870968,634.557903225806,62
2013,BLOOMFIELD,40.7516884,-92.4149074,3.15246465418418,34.9316660298051,2617
2013,BLUE GRASS,41.5089194,-90.7659767,3.10654832935561,39.2971897374702,1676
2013,BONDURANT,41.7019329,-93.4607681,1.08541333066453,14.6403963170536,4996
2013,BOONE,42.0597047,-93.8802273,7.81320319886543,97.9659021430823,12692
2013,BRITT,43.0977399,-93.8018875,5.68086670045616,54.8829903699949,1973
2013,BROOKLYN,41.7315717,-92.4453638,6.13362676056338,77.5135,1420
2013,BUFFALO,41.4555873,-90.7209746,1.93814472671286,25.3323402617398,1299
2013,BUFFALO CENTER,43.3857909,-93.9466193,5.94259776536313,65.8174301675978,895
2013,BURLINGTON,40.8076529,-91.1128901,7.11217630853995,98.124715072806,25410
2013,BUSSEY,41.2066696,-92.8840881,4.01341463414634,36.5575609756097,410
2013,CAMANCHE,41.7853085,-90.2529064,1.30648468094909,16.9693480764801,4341
2013,CAMBRIDGE,41.8983187,-93.5291019,2.60587697929354,33.9568331303289,821
2013,CARROLL,42.0655986,-94.8672793,16.2220455457464,212.833136035313,9968
2013,CARTER LAKE,41.2905534,-95.9180689,1.28628989712477,17.2211659192825,3791
2013,CASCADE,42.2986159,-91.0148618,4.27851166886834,51.6175869660942,2271
2013,CASEY,41.5047095,-94.5183037,3.59701492537313,51.0631343283582,402
2013,CEDAR FALLS,42.5348993,-92.4453161,8.24490243606836,116.016605017574,41255
2013,CEDAR RAPIDS,41.9778795,-91.6656232,9.99945362524443,141.156602047467,130405
2013,CENTER POINT,42.1908265,-91.7851772,2.55357001190004,27.0920904403015,2521
2013,CENTERVILLE,40.7290565,-92.8738196,10.21269545793,134.028961280715,5372
2013,CENTRAL CITY,42.2038829,-91.5240561,4.26704097714736,47.943609141056,1269
2013,CHARITON,41.0199996,-93.3140985,6.43484812529663,81.9898528713811,4214
2013,CHARLES CITY,43.0663612,-92.6724112,9.5751106639839,117.720182427901,7455
2013,CHEROKEE,42.7496413,-95.5515431,11.6663809145129,142.807729622266,5030
2013,CLARINDA,40.7419352,-95.038313,5.26417035806571,71.2220136581765,5418
2013,CLARION,42.7316387,-93.732992,4.23170401156487,52.7247668955548,2767
2013,CLARKSVILLE,42.7847,-92.6676907,2.15046132008517,23.6201987224982,1409
2013,CLEAR LAKE,43.1435564,-93.3788108,15.9973847167325,205.851524374177,7590
2013,CLINTON,41.8444735,-90.1887379,8.52014656230817,113.450371777164,26064
2013,CLIVE,41.6060873,-93.77236,4.42825506630691,61.2939864515759,17419
2013,COLESBURG,42.6394355,-91.2020781,5.44395465994962,64.2885894206549,397
2013,COLFAX,41.6770762,-93.2451249,5.07993661628474,56.8246172598732,2051
2013,COLO,42.0177653,-93.3152072,3.71742160278746,43.3303832752613,861
2013,COLUMBUS JUNCTION,41.2786364,-91.3598775,4.9708870967742,70.3954731182796,1860
2013,CONRAD,42.2247077,-92.8746455,4.03590909090909,47.4843454545455,1100
2013,COON RAPIDS,41.8708192,-94.6774786,3.66814420803782,48.4433333333333,1269
2013,CORALVILLE,41.6822756,-91.5960643,14.5319138198758,241.040838994565,20608
2013,CORNING,40.9869306,-94.7335843,8.5081164606376,108.642895250488,1537
2013,CORYDON,40.7569499,-93.3188229,4.47750157331655,53.5337633731907,1589
2013,COUNCIL BLUFFS,41.2619444,-95.8608333,9.5796387846063,137.761932840232,62597
2013,CRESCO,43.3813568,-92.1140547,14.0821027915471,168.112217584138,3833
2013,CRESTON,41.0586002,-94.3613474,9.00549719887955,116.39820473644,7854
2013,CUMMING,41.4833235,-93.7624442,0.816120906801008,14.6935012594458,397
2013,DAKOTA CITY,42.7221935,-94.1971836,1.23923739237392,13.4127306273063,813
2013,DAVENPORT,41.5236437,-90.5776367,8.7711536624359,124.934264393363,102582
2013,DAYTON,42.2613645,-94.0685672,5.92543859649123,75.9480325814536,798
2013,DE SOTO,41.5315745,-94.0077785,5.16797520661157,72.636189164371,1089
2013,DE WITT,41.8239952,-90.5389662,4.25691529950401,47.2685463563525,5242
2013,DECORAH,43.3033056,-91.7857092,11.2542525610219,146.32787150626,7907
2013,DELMAR,42.0022453,-90.6070804,1.36464143426295,16.2781673306773,502
2013,DENISON,42.024988,-95.3588867,9.88061855051596,130.775475161987,8334
2013,DENVER,42.6713718,-92.3374045,3.40108991825613,38.788446866485,1835
2013,DES MOINES,41.6005448,-93.6091064,9.62443021917938,148.549691247088,210330
2013,DONNELLSON,40.6428152,-91.5646028,1.70510543840178,24.8139400665927,901
2013,DOWS,42.656564,-93.5010558,3.58628404669261,36.9970622568093,514
2013,DUBUQUE,42.5005583,-90.6645718,8.74115707750132,121.850804095308,58799
2013,DUMONT,42.748585,-92.9724184,3.68014354066986,34.9448165869219,627
2013,DUNLAP,41.8543292,-95.6019662,9.47927328556807,135.628413510747,977
2013,DURANT,41.5997498,-90.9107037,3.21594162995595,36.0062004405286,1816
2013,DYERSVILLE,42.4836415,-91.1140899,9.36637131303521,99.747295432921,4204
2013,DYSART,42.171659,-92.3062978,2.2533234859675,28.4989364844904,1354
2013,EAGLE GROVE,42.6641396,-93.9044473,6.72643316759286,79.8303539046505,3419
2013,EARLHAM,41.4915674,-94.1229834,1.17156583629893,14.8466619217082,1405
2013,EARLY,42.4613706,-95.1519373,2.8031015037594,38.9337593984962,532
2013,EDDYVILLE,41.1605646,-92.6313031,1.95207509881423,26.8605533596838,1012
2013,EDGEWOOD,42.6444313,-91.4012515,4.23760092272203,51.1259515570934,867
2013,ELDON,40.9186301,-92.2229585,0.396775956284153,5.46743169398907,915
2013,ELDORA,42.3680382,-93.1057576,8.44876943005181,94.7371798667654,2702
2013,ELDRIDGE,41.6580864,-90.5845822,4.91463013478819,60.5015548780488,6232
2013,ELKADER,42.8538739,-91.4054159,1.22691673536686,19.0072052761748,1213
2013,ELLSWORTH,42.3124934,-93.5787757,7.51463654223969,93.8428487229862,509
2013,ELMA,43.2466362,-92.4360102,13.7226345083488,171.000667903525,539
2013,ELY,41.8736182,-91.585175,1.1643924783028,15.4128447444552,2074
2013,EMMETSBURG,43.1127427,-94.6830357,12.484695617948,157.080293886119,3811
2013,ESTHERVILLE,43.4013478,-94.8391532,8.71577524538346,103.444345366828,6011
2013,EVANSDALE,42.4691543,-92.281017,6.98875207813799,86.1811845386534,4812
2013,EVERLY,43.1616378,-95.3280572,1.47203098106713,16.8789845094664,581
2013,EXIRA,41.591156,-94.8763141,3.27791878172589,38.8828172588833,788
2013,FAIRBANK,42.6391512,-92.0471199,4.78149059982095,53.747466427932,1117
2013,FAIRFIELD,41.0076114,-91.9636914,6.07026132228063,81.0984947432269,9892
2013,FARLEY,42.4444448,-91.0051339,1.27052040212892,14.677510348906,1691
2013,FARMINGTON,40.6403124,-91.7429429,2.92080123266564,36.9463174114022,649
2013,FAYETTE,42.8419255,-91.8021071,4.83531187122736,62.9284976525822,1491
2013,FLOYD,43.1277502,-92.7363031,23.3817835365854,338.211036585366,328
2013,FONDA,42.5813666,-94.8460957,1.71350906095552,21.2316968698517,607
2013,FONTANELLE,41.2897097,-94.5616359,7.88443396226415,95.3582075471698,636
2013,FOREST CITY,43.2624685,-93.6371937,10.2040069686411,121.793979591837,4018
2013,FORT ATKINSON,43.1433068,-91.9326637,18.6886160714286,217.629851190476,336
2013,FORT DODGE,42.4974694,-94.1680158,10.0784352306382,132.308116759301,24649
2013,FORT MADISON,40.6297634,-91.314535,7.24225762806756,91.4013585891574,10717
2013,FREDERICKSBURG,42.9652547,-92.1996196,4.23969631236442,41.916442516269,922
2013,GARNAVILLO,42.8685981,-91.2359644,1.35743801652893,18.3869421487603,726
2013,GARNER,43.1023343,-93.6020858,4.28098648213711,48.5567492758288,3107
2013,GEORGE,43.3438624,-96.0022431,2.90071090047393,32.0284834123223,1055
2013,GILMORE CITY,42.7294176,-94.4477507,3.59877800407332,45.9216700610998,491
2013,GLADBROOK,42.1877647,-92.715199,3.85168539325843,38.8817640449438,890
2013,GLENWOOD,41.0469437,-95.7425056,4.94612602322483,56.8745688178184,5253
2013,GLIDDEN,42.0569297,-94.72887,1.62903726708075,21.4437444543035,1127
2013,GOLDFIELD,42.7349711,-93.9149462,2.71134868421053,31.1553947368421,608
2013,GOWRIE,42.2806289,-94.2907762,7.61286286286286,97.8875075075075,999
2013,GRAETTINGER,43.237733,-94.751303,2.8964241676942,33.0728729963009,811
2013,GRAND JUNCTION,42.0313859,-94.2371186,2.31314955640051,29.3177693282636,789
2013,GRAND MOUND,41.8247927,-90.6476151,5.9444489465154,71.7558346839546,617
2013,GRANGER,41.7610984,-93.8243923,1.49152690426275,18.3974143955276,1431
2013,GREENE,42.8958066,-92.8024158,2.94743303571429,33.6543214285714,1120
2013,GREENFIELD,41.3052657,-94.4613543,6.09042750929368,72.5907647371216,1883
2013,GRIMES,41.6883646,-93.7925199,7.35172115024354,101.295697826901,10676
2013,GRINNELL,41.7434092,-92.7232456,7.9481386062794,106.995660212231,9141
2013,GRISWOLD,41.234991,-95.1374929,1.05106910569106,11.1682825203252,984
2013,GRUNDY CENTER,42.3616501,-92.7685327,5.81798084008843,69.7309506263817,2714
2013,GUTHRIE CENTER,41.6772087,-94.5033044,4.38319563780568,50.7511368142763,1513
2013,GUTTENBERG,42.7899897,-91.1029068,6.20188070929608,90.2492584631918,1861
2013,HAMBURG,40.6044458,-95.6577711,1.54805914972274,23.3007393715342,1082
2013,HAMPTON,42.7425009,-93.2103402,8.52648601398601,105.397118881119,4290
2013,HARLAN,41.653044,-95.3255541,11.1311075569772,146.787383046781,5002
2013,HARPERS FERRY,43.2005358,-91.1531852,4.28542319749216,50.2844200626959,319
2013,HARTLEY,43.1802719,-95.4770511,8.15812190594059,94.0903341584158,1616
2013,HAWARDEN,42.9963772,-96.4891976,4.20736965895727,47.2265778126225,2551
2013,HAZLETON,42.6174483,-91.9056039,1.0359413202934,14.8171149144254,818
2013,HIAWATHA,42.0491958,-91.6815252,2.61663772746215,33.3715043756077,7199
2013,HOLSTEIN,42.4891531,-95.545003,12.2027677929547,167.130711718188,1391
2013,HOLY CROSS,42.6005516,-90.9956854,14.2847769028871,193.868976377953,381
2013,HUBBARD,42.3055396,-93.3002055,4.61157074340528,46.9730095923261,834
2013,HUDSON,42.406653,-92.4554671,1.20520789584208,14.9396178076438,2381
2013,HUMBOLDT,42.7208047,-94.2152402,10.201158616188,123.661501305483,4596
2013,HUXLEY,41.895265,-93.6007732,0.800127262443439,11.0244089366516,3536
2013,IDA GROVE,42.3462987,-95.4716235,7.61863807728558,84.2121866163996,2122
2013,INDEPENDENCE,42.4685978,-91.8893386,9.72137110152621,124.835698407432,6028
2013,INDIANOLA,41.3580484,-93.5574376,7.42120320682744,96.6980616797052,15467
2013,INWOOD,43.3072022,-96.4319799,8.39901356350185,114.501196054254,811
2013,IOWA CITY,41.6611277,-91.5301683,8.53463796820264,125.13372244678,74220
2013,IOWA FALLS,42.5198868,-93.2645741,11.7470404234841,151.558306063523,5195
2013,IRETON,42.97471,-96.3183585,1.93313953488372,27.8023089700997,602
2013,JEFFERSON,42.0172457,-94.3774232,5.18604900095148,62.3619029495718,4204
2013,JESUP,42.475543,-92.0637884,2.94584425308873,35.4382216398353,2671
2013,JEWELL JUNCTION,42.306818,-93.6400274,2.05631844987363,20.0775568660489,1187
2013,JOHNSTON,41.6709834,-93.7130493,4.06652172871449,57.7757060035456,20871
2013,KELLOGG,41.7180533,-92.9077629,4.0714527027027,59.0736148648649,592
2013,KEOKUK,40.4044731,-91.3963966,12.6278374022057,171.119222358375,10609
2013,KEOSAUQUA,40.7303057,-91.9623949,12.3728616684266,170.790232312566,947
2013,KEOTA,41.3639015,-91.9537859,2.18737113402062,22.2649175257732,970
2013,KINGSLEY,42.588324,-95.9675165,3.38574498567335,39.1378581661891,1396
2013,KNOXVILLE,41.320343,-93.09967,8.58367135761589,112.240120033113,7248
2013,LA PORTE CITY,42.3149911,-92.1921275,4.34230349344978,56.6946986899563,2290
2013,LAKE CITY,42.2674828,-94.7338704,6.1547005988024,69.3748383233533,1670
2013,LAKE MILLS,43.419329,-93.5325269,4.28481796116505,52.0702669902913,2060
2013,LAKE PARK,43.4532977,-95.3225004,2.42379067722076,25.999489885664,1137
2013,LAKE VIEW,42.3116499,-95.053324,12.9878444444444,160.688257777778,1125
2013,LAMONI,40.622777,-93.9341158,2.38767887205387,31.3287584175084,2376
2013,LANSING,43.3609053,-91.218768,10.2531948881789,119.626592119276,939
2013,LARCHWOOD,43.4535861,-96.434205,15.8620485327314,234.146681715576,886
2013,LAURENS,42.8466398,-94.8519296,8.94127118644068,97.7794237288136,1180
2013,LAWLER,43.0695607,-92.1557563,9.0321513002364,118.802576832151,423
2013,LE CLAIRE,41.5975061,-90.3462215,5.73229532898041,116.021878453039,3982
2013,LE GRAND,42.0069336,-92.7754761,4.9818710359408,60.2886786469345,946
2013,LE MARS,42.7941567,-96.1655778,9.93750384181948,131.833043745518,9761
2013,LENOX,40.8816547,-94.5619095,2.43104693140794,29.3092924187726,1385
2013,LEON,40.739724,-93.7477217,3.61011560693642,49.2538045191802,1903
2013,LISBON,41.9211198,-91.3854466,2.72168483197094,34.9588374205268,2202
2013,LOGAN,41.6430472,-95.7891614,4.00409556313993,42.9061843003413,1465
2013,LOST NATION,41.9639095,-90.8176431,1.40955188679245,17.684858490566,424
2013,LOVILIA,41.1358371,-92.9040881,1.38901734104046,20.0283044315992,519
2013,MADRID,41.8779511,-93.8156689,2.30414412673879,27.0138060278207,2588
2013,MALVERN,41.006292,-95.5851456,2.24512085944494,28.8824529991047,1117
2013,MANCHESTER,42.4857853,-91.4579698,13.6776956436034,178.278566922925,5073
2013,MANNING,41.9091382,-95.0651328,4.94431046195652,63.1687635869565,1472
2013,MANSON,42.5291439,-94.5341421,6.78981424148607,81.688959752322,1615
2013,MAPLETON,42.1658227,-95.7930621,14.0961902800659,188.284958813839,1214
2013,MAQUOKETA,42.0689088,-90.6656914,11.745554349641,142.715862414426,5989
2013,MARCUS,42.8272084,-95.8077912,2.29042056074766,27.7159813084112,1070
2013,MARENGO,41.7927817,-92.0696253,10.5224532431357,115.137067250298,2513
2013,MARION,42.033279,-91.5968958,4.22589405304045,54.3354545941602,37330
2013,MARSHALLTOWN,42.0494674,-92.9080375,7.02789102099927,94.9832588703838,27620
2013,MARTENSDALE,41.3730474,-93.7357761,1.1646186440678,16.6747457627119,472
2013,MASON CITY,43.1535728,-93.2010367,10.7095894540671,133.741266535117,27366
2013,MAXWELL,41.8919322,-93.3996546,2.89859154929577,32.3471614301192,923
2013,MCGREGOR,43.0246813,-91.1812468,0.832091775923719,11.4482836710369,839
2013,MECHANICSVILLE,41.9027909,-91.2546067,1.84413357400722,24.0272653429603,1108
2013,MEDIAPOLIS,41.0080904,-91.1640369,5.40271601016519,74.6464104193138,1574
2013,MELBOURNE,41.9413772,-93.1032569,0.812575574365175,10.2536880290206,827
2013,MELCHER-DALLAS,41.2249966,-93.2413191,6.35986894360604,93.1419698173153,1259
2013,MILFORD,43.3246863,-95.149996,26.9760851557323,356.975921139828,3018
2013,MISSOURI VALLEY,41.5563713,-95.8877767,5.56822820037106,72.3641632653061,2695
2013,MONONA,43.0516494,-91.3893041,8.02048333333333,99.6316266666667,1500
2013,MONROE,41.5208256,-93.1038129,2.82947842708902,35.1229929000546,1831
2013,MONTEZUMA,41.585834,-92.5274091,12.7880049610205,175.890177179306,1411
2013,MONTICELLO,42.2383351,-91.1870937,10.5766274509804,121.874381699346,3825
2013,MORAVIA,40.8916777,-92.8190852,4.80657076205288,76.0855054432348,643
2013,MOUNT AYR,40.7147147,-94.235232,6.64255634638197,83.7261150652432,1686
2013,MOUNT PLEASANT,40.9716959,-91.5487714,9.03645203367722,125.239632396537,8433
2013,MOUNT VERNON,41.9219522,-91.4168371,35.3060855996433,488.618927775301,4486
2013,MURRAY,41.0417646,-93.9493246,0.635850340136054,8.72480272108844,735
2013,MUSCATINE,41.424473,-91.0432051,8.07698702436582,109.139873164219,23968
2013,NASHUA,42.9522221,-92.5386382,1.53392967304133,17.7603392967304,1621
2013,NEOLA,41.4488816,-95.6155615,4.11992459396752,52.6684106728538,862
2013,NEVADA,42.0227184,-93.4523014,5.00992168057385,60.4406836480749,6831
2013,NEW HAMPTON,43.0592724,-92.317864,6.23200318655852,66.9690701042874,3452
2013,NEW VIRGINIA,41.1822168,-93.7288305,5.16561855670103,71.7317113402062,485
2013,NEWTON,41.7033177,-93.0573533,7.41833256198347,94.6166254545455,15125
2013,NORA SPRINGS,43.1427466,-93.0043668,1.98522318214543,20.9746436285097,1389
2013,NORTH ENGLISH,41.5138978,-92.0762891,6.81616927592955,62.55885518591,1022
2013,NORTH LIBERTY,41.739482,-91.6080974,4.47660692988513,64.4170001883121,15931
2013,NORTHWOOD,43.4441245,-93.2210371,8.84397243107769,108.602260651629,1995
2013,NORWALK,41.475546,-93.6788304,3.42377898371978,40.6224065120868,10135
2013,OAKLAND,41.3094375,-95.3957997,6.03394160583942,75.709800928998,1507
2013,OELWEIN,42.6784949,-91.9119586,8.92914838290265,101.544825288477,6153
2013,OGDEN,42.0395595,-94.0320167,2.97158255756982,34.9915678588927,2041
2013,OKOBOJI,43.3863521,-95.1483293,2.29669926650367,30.515391198044,818
2013,ONAWA,42.0266548,-96.0972376,7.67168517875738,97.8426587990281,2881
2013,ORANGE CITY,43.0072087,-96.0583523,4.65896256857051,64.378181671507,6198
2013,OSAGE,43.2841382,-92.8190838,5.78692528735632,70.1781061850027,3654
2013,OSCEOLA,41.0342618,-93.766759,8.54414722445696,109.606508447305,4972
2013,OSKALOOSA,41.2916728,-92.6493595,7.78126992332214,101.296873438442,11607
2013,OSSIAN,43.145809,-91.7632108,5.08562271062271,68.0879609279609,819
2013,OTHO,42.4246934,-94.1502372,2.52089694656489,31.2995229007634,524
2013,OTTUMWA,41.0160293,-92.4083022,6.95989786387265,94.9316106237816,24624
2013,PACIFIC JUNCTION,41.0187126,-95.8010851,17.3946389496718,253.095470459519,457
2013,PALO,42.0660485,-91.7961118,3.98119658119658,55.4887749287749,1053
2013,PANORA,41.6916535,-94.3630215,12.6315898617512,156.177023041475,1085
2013,PARKERSBURG,42.5774797,-92.7868634,4.78852040816327,50.6840816326531,1960
2013,PAULLINA,42.9791479,-95.6880657,7.28574237954769,78.9777286135693,1017
2013,PELLA,41.4080327,-92.916405,5.82945816848403,79.1496024317283,10363
2013,PEOSTA,42.4491375,-90.8504116,1.28306551297899,17.3268726823239,1618
2013,PERRY,41.8385964,-94.1071797,5.46356471751762,65.6716862405736,8089
2013,PLEASANT HILL,41.5873903,-93.5196138,5.76466340992055,80.0079815331759,9314
2013,PLEASANTVILLE,41.3869578,-93.2682683,2.8136309167166,35.6550329538646,1669
2013,POCAHONTAS,42.7355299,-94.6691467,9.66222701149425,102.939568965517,1740
2013,POLK CITY,41.7713764,-93.7129997,2.53719060837381,33.6728591256072,4323
2013,POMEROY,42.5510885,-94.6838687,1.092,11.011776,625
2013,POSTVILLE,43.084702,-91.5682015,1.71743312998592,19.8863679023932,2131
2013,PRAIRIE CITY,41.599434,-93.2352053,1.34486541837332,13.6813750731422,1709
2013,PRESTON,42.0502844,-90.3960275,1.3398773006135,14.2260531697342,978
2013,PRIMGHAR,43.0869215,-95.627232,8.27178612059158,106.040807736064,879
2013,PRINCETON,41.6748689,-90.3409096,1.05691603875135,12.906942949408,929
2013,RED OAK,41.0170937,-95.2214477,8.04314692982456,98.8092671783626,5472
2013,REINBECK,42.323597,-92.5993615,1.89444783404515,21.2748871262965,1639
2013,REMSEN,42.8125933,-95.9733503,6.35821078431373,82.8508455882353,1632
2013,RICEVILLE,43.3638571,-92.5540687,2.93240740740741,32.8035925925926,810
2013,RIVERSIDE,41.4797413,-91.5812759,11.3407894736842,182.16438277512,1045
2013,ROCK RAPIDS,43.4271945,-96.1758598,8.89957724827056,116.088059185242,2602
2013,ROCK VALLEY,43.2052594,-96.2950263,2.34509206607094,29.5800487408611,3693
2013,ROCKWELL,42.985244,-93.1918688,8.99313052011776,104.860206084397,1019
2013,ROCKWELL CITY,42.3952576,-94.6338671,3.35367818776273,37.0033675852405,2141
2013,ROLFE,42.8127501,-94.5269204,3.81484794275492,53.3644722719141,559
2013,RUTHVEN,43.1291322,-94.8991531,5.68714488636364,61.4909232954545,704
2013,SAC CITY,42.4222033,-94.9897109,11.6646921641791,134.037719216418,2144
2013,SANBORN,43.1816421,-95.6555674,4.14203971119133,49.528036101083,1385
2013,SCHALLER,42.4997048,-95.2930523,1.57885906040268,15.3914093959732,745
2013,SCHLESWIG,42.1652658,-95.4369432,8.82062996594779,126.573496027242,881
2013,SCRANTON,42.0224844,-94.5452524,3.025,36.7909056603774,530
2013,SERGEANT BLUFF,42.4029802,-96.3588424,3.35012168141593,39.2165486725664,4520
2013,SHEFFIELD,42.8944129,-93.2118688,1.75429824561404,19.3331228070175,1140
2013,SHELDON,43.1812107,-95.8569539,12.2396717767296,149.977963836478,5088
2013,SHELLSBURG,42.0945385,-91.8693231,6.77410620399579,84.8273080967403,951
2013,SHENANDOAH,40.7667389,-95.3761506,11.161556462856,155.075024895439,5021
2013,SIBLEY,43.3999861,-95.7516395,6.97369752623688,82.8290367316342,2668
2013,SIGOURNEY,41.3333445,-92.2046255,5.1976433915212,60.4969127182045,2005
2013,SIOUX CENTER,43.0797991,-96.1756935,6.74925613188581,87.0603055890631,7461
2013,SIOUX CITY,42.4999942,-96.4003069,6.97953598724961,98.7501908936139,82821
2013,SIOUX RAPIDS,42.8933093,-95.1511051,8.86351351351351,104.793861003861,777
2013,SLATER,41.8778194,-93.6821269,2.04417330677291,26.6038247011952,1506
2013,SLOAN,42.2337584,-96.2244905,4.90357507660879,63.4290602655771,979
2013,SOLON,41.8072344,-91.4940604,4.57098231827112,59.1027819253438,2545
2013,SPENCER,43.1450748,-95.144318,11.0347061184445,130.037678380307,11212
2013,SPIRIT LAKE,43.4226192,-95.1022313,34.168144679155,436.917321642089,5018
2013,SPRINGVILLE,42.0594453,-91.4426703,0.500965759438104,6.93668129938543,1139
2013,ST. ANSGAR,43.3784811,-92.9203887,11.6499351211073,141.685458477509,1156
2013,ST. CHARLES,41.2883257,-93.8093887,2.73805732484076,34.7673089171974,628
2013,ST. LUCAS,43.0665745,-91.9332498,33.1684782608696,421.499347826087,138
2013,STATE CENTER,42.0166544,-93.1635365,3.35773809523809,37.0160816326531,1470
2013,STORM LAKE,42.6430359,-95.2019399,10.9356232813932,149.183346471127,10910
2013,STORY CITY,42.1871601,-93.5955532,4.05849331006399,46.2297120418848,3438
2013,STRATFORD,42.2713655,-93.9271721,4.84879310344828,57.0478896551724,725
2013,STRAWBERRY POINT,42.6835955,-91.5340348,4.59409385113269,53.6240857605178,1236
2013,STUART,41.5034243,-94.3183715,7.81388888888889,91.4972097378277,1602
2013,SULLY,41.5783288,-92.8449164,1.15109489051095,16.3286861313869,822
2013,SUMNER,42.8474801,-92.0915633,4.08215530114485,48.7602787456446,2009
2013,SUTHERLAND,42.9741434,-95.4975058,5.82868122977346,66.2753074433657,618
2013,SWEA CITY,43.384403,-94.3149681,7.82476007677543,90.4151055662188,521
2013,SWISHER,41.8458406,-91.693232,10.9496553552492,268.678504772004,943
2013,TIFFIN,41.7069149,-91.6632783,1.5998870907038,21.6054309371472,2657
2013,TIPTON,41.7697434,-91.1279349,8.15965625,95.749609375,3200
2013,TOLEDO,41.9972134,-92.5835266,15.4386920980926,195.042801998183,2202
2013,TRAER,42.1936007,-92.4654688,4.74252265861027,53.1510996978852,1655
2013,TREYNOR,41.2324965,-95.6130608,2.50672268907563,32.678025210084,952
2013,TRIPOLI,42.8080363,-92.2582341,12.4533345752608,148.931304023845,1342
2013,URBANA,42.2241596,-91.8743444,1.9507882111035,23.7584784098698,1459
2013,URBANDALE,41.6266555,-93.7121656,3.39451171077119,51.5553583586764,44062
2013,VAN METER,41.5333223,-93.9543949,1.14680385288967,15.3055166374781,1142
2013,VILLISCA,40.9296034,-94.9766416,0.835427135678392,9.89304020100503,1194
2013,VINTON,42.1646477,-92.0185651,4.99679972804973,56.2404506604507,5148
2013,WALKER,42.2866572,-91.7807299,2.0657196969697,26.3725378787879,792
2013,WALNUT,41.4774899,-95.2219405,2.97590206185567,41.730412371134,776
2013,WAPELLO,41.1814193,-91.1854273,4.26918177364037,49.5632925036747,2041
2013,WASHINGTON,41.3014077,-91.6916417,10.6706769708423,147.326073164147,7408
2013,WATERLOO,42.492786,-92.3425775,9.71031259129419,142.334451358458,68460
2013,WAUKEE,41.6119903,-93.8855768,2.93106319115324,44.8097361769352,18990
2013,WAUKON,43.2694208,-91.475695,13.6993642933619,167.016338329764,3736
2013,WAVERLY,42.7272032,-92.4668511,11.1223003179018,141.966233856547,10066
2013,WEBSTER CITY,42.4694321,-93.8159149,7.49376439723573,91.0018287688764,7814
2013,WELLMAN,41.4641806,-91.8382273,4.61360936408106,58.1563172606569,1431
2013,WELLSBURG,42.4328011,-92.9250864,2.15536480686695,24.6575965665236,699
2013,WESLEY,43.0886148,-93.9931467,44.3288057742782,613.078188976378,381
2013,WEST BEND,42.9600447,-94.4450576,16.0274044795784,172.892279314888,759
2013,WEST BRANCH,41.6714086,-91.3465521,2.62768506632435,32.112216516902,2337
2013,WEST BURLINGTON,40.8250386,-91.1565357,13.8862487692813,173.638135871349,3047
2013,WEST DES MOINES,41.5772115,-93.711332,9.34246120131642,149.245551448224,64113
2013,WEST LIBERTY,41.5700231,-91.2637695,3.04488331545064,47.5787821888412,3728
2013,WEST POINT,40.7167039,-91.4501542,14.189579002079,213.166912681913,962
2013,WEST UNION,42.9627564,-91.8082167,9.80099626400996,114.203636363636,2409
2013,WHEATLAND,41.8316906,-90.8382014,0.681446111869031,10.0966575716235,733
2013,WHITTEMORE,43.0634809,-94.4221252,3.16869918699187,44.5295325203252,492
2013,WILLIAMSBURG,41.6611187,-92.0090673,6.72266823161189,82.1936025039123,3195
2013,WILTON,41.5889154,-91.0168179,2.16850267379679,23.773889483066,2805
2013,WINDSOR HEIGHTS,41.6038268,-93.7105118,79.2575219881367,1133.6968541624,4889
2013,WINTERSET,41.3308237,-94.0138393,7.97551680834621,98.1789142194745,5176
2013,WINTHROP,42.4733189,-91.7343327,7.73881036513545,101.628150765607,849
2013,WOODBINE,41.7340073,-95.7074104,3.09847046413502,36.801188466948,1422
2013,WOODWARD,41.857276,-93.9222218,1.69545908183633,21.141497005988,1503
2013,ZWINGLE,42.2977891,-90.6876307,21.8494444444444,347.704444444444,90
2014,ACKLEY,42.555534,-93.0529775,3.52314102564103,36.6964166666667,1560
2014,ADAIR,41.50043,-94.6433504,4.01095467032967,62.2019917582418,728
2014,ADEL,41.6144325,-94.017453,5.66102473498233,69.2045182567727,4245
2014,AFTON,41.0284183,-94.1975786,2.46495778045838,31.1420989143546,829
2014,AKRON,42.8288818,-96.5594773,1.77327586206897,21.0987793103448,1450
2014,ALBIA,41.0300078,-92.811307,5.9836772003134,75.6652833638026,3829
2014,ALDEN,42.5202571,-93.3760389,9.53494764397906,123.455065445026,764
2014,ALGONA,43.0699663,-94.233019,13.9662888482633,172.307016453382,5470
2014,ALLISON,42.7535847,-92.7952244,4.75743440233236,54.6878522837706,1029
2014,ALTA,42.6749812,-95.3041656,0.31379132231405,4.22497933884298,1936
2014,ALTA VISTA,43.1985819,-92.4171216,2.82567049808429,33.3098084291188,261
2014,ALTOONA,41.6435514,-93.4750836,9.38745436881771,129.397037800283,16984
2014,AMES,42.0307812,-93.6319131,8.20350561020596,116.704176298801,65060
2014,ANAMOSA,42.1083371,-91.2851594,9.11066922654964,110.884894861949,5469
2014,ANITA,41.4438761,-94.764146,6.2595449790795,75.1959832635984,956
2014,ANKENY,41.7317884,-93.6001278,5.15507011486153,74.2210948840815,56764
2014,ANTHON,42.3883232,-95.8666772,12.6110281195079,175.920193321617,569
2014,ARLINGTON,42.7491501,-91.6712663,6.6684756097561,72.3287073170732,410
2014,ARMSTRONG,43.3960697,-94.4783082,3.52373453318335,40.9515860517435,889
2014,ARNOLDS PARK,43.3727408,-95.1238841,19.3865275526742,281.55574554295,1234
2014,ATLANTIC,41.4036007,-95.0138776,11.0096004683155,143.825785160252,6833
2014,AUDUBON,41.7180421,-94.9324868,6.10477193852256,67.2077739216658,2017
2014,AURELIA,42.71276,-95.4366701,0.877016129032258,10.5689112903226,992
2014,AVOCA,41.4766571,-95.3380549,16.3909242021277,232.375472074468,1504
2014,BALDWIN,42.0741832,-90.8415301,21.3056603773585,241.387358490566,106
2014,BANCROFT,43.2927386,-94.2180192,31.2486971830986,449.491211267606,710
2014,BAXTER,41.8260998,-93.1515905,2.66561650045331,30.0699274705349,1103
2014,BEDFORD,40.666932,-94.721358,2.86070671378092,35.9889116607774,1415
2014,BELLE PLAINE,41.8955529,-92.2757404,8.4370404040404,106.922496969697,2475
2014,BELLEVUE,42.2588936,-90.4257531,9.37477022058824,130.196999080882,2176
2014,BELMOND,42.84608,-93.6140991,5.13166594641314,63.7376058772688,2314
2014,BETTENDORF,41.56085,-90.48344,9.0986114631742,143.927015349951,35505
2014,BEVINGTON,41.3605472,-93.7907776,44.058064516129,594.422580645161,62
2014,BLOOMFIELD,40.7516884,-92.4149074,3.21025983951089,36.8131448223156,2617
2014,BLUE GRASS,41.5089194,-90.7659767,3.60856205250597,44.1378460620525,1676
2014,BONDURANT,41.7019329,-93.4607681,1.32762710168134,18.1554743795036,4996
2014,BOONE,42.0597047,-93.8802273,7.68419476835802,97.1752009139615,12692
2014,BRITT,43.0977399,-93.8018875,5.75362392295996,57.8665281297517,1973
2014,BROOKLYN,41.7315717,-92.4453638,6.44573943661972,82.5678169014085,1420
2014,BUFFALO,41.4555873,-90.7209746,1.58976135488838,20.2227328714396,1299
2014,BUFFALO CENTER,43.3857909,-93.9466193,6.37815642458101,69.558938547486,895
2014,BURLINGTON,40.8076529,-91.1128901,7.40198839039748,108.88637347501,25410
2014,BUSSEY,41.2066696,-92.8840881,3.63365853658537,33.6724390243902,410
2014,CAMANCHE,41.7853085,-90.2529064,1.36379290486063,17.7530983644322,4341
2014,CAMBRIDGE,41.8983187,-93.5291019,3.40487210718636,43.2933495736906,821
2014,CARLISLE,41.4986013,-93.4835466,0.949748080614203,13.4509500959693,4168
2014,CARROLL,42.0655986,-94.8672793,15.5359249598716,204.155039125201,9968
2014,CARTER LAKE,41.2905534,-95.9180689,1.4636309680823,19.5553758902664,3791
2014,CASCADE,42.2986159,-91.0148618,4.31417877586966,52.9697049757816,2271
2014,CASEY,41.5047095,-94.5183037,3.85597014925373,55.0444776119403,402
2014,CEDAR FALLS,42.5348993,-92.4453161,8.7717252454248,122.882959398861,41255
2014,CEDAR RAPIDS,41.9778795,-91.6656232,10.1566230205897,144.138925884744,130405
2014,CENTER POINT,42.1908265,-91.7851772,2.67931376437922,28.6078778262594,2521
2014,CENTERVILLE,40.7290565,-92.8738196,10.2380584512286,132.664996276992,5372
2014,CENTRAL CITY,42.2038829,-91.5240561,4.38449566587864,51.8613947990544,1269
2014,CHARITON,41.0199996,-93.3140985,7.26112363550071,96.0149596582819,4214
2014,CHARLES CITY,43.0663612,-92.6724112,9.55475519785379,119.757998658618,7455
2014,CHEROKEE,42.7496413,-95.5515431,10.19747972167,124.827445328032,5030
2014,CLARINDA,40.7419352,-95.038313,5.38012643041713,73.2579217423404,5418
2014,CLARION,42.7316387,-93.732992,3.96876581134803,49.2079653053849,2767
2014,CLARKSVILLE,42.7847,-92.6676907,2.83385379701916,32.1676508161817,1409
2014,CLEAR LAKE,43.1435564,-93.3788108,16.1324571805007,213.033851119895,7590
2014,CLINTON,41.8444735,-90.1887379,8.1258114640884,108.106586479435,26064
2014,CLIVE,41.6060873,-93.77236,3.7196983179287,50.5060973649463,17419
2014,COLESBURG,42.6394355,-91.2020781,0.923803526448363,10.9252141057935,397
2014,COLFAX,41.6770762,-93.2451249,4.99612384202828,57.3040663091175,2051
2014,COLO,42.0177653,-93.3152072,4.16202090592335,49.4296167247387,861
2014,COLUMBUS JUNCTION,41.2786364,-91.3598775,4.88224462365591,71.1597043010753,1860
2014,CONRAD,42.2247077,-92.8746455,3.72827272727273,45.1205363636364,1100
2014,COON RAPIDS,41.8708192,-94.6774786,4.16075650118203,53.3296296296296,1269
2014,CORALVILLE,41.6822756,-91.5960643,16.0741459627329,271.430282899845,20608
2014,CORNING,40.9869306,-94.7335843,8.5016753415745,111.6573129473,1537
2014,CORYDON,40.7569499,-93.3188229,3.42188483322845,39.6749842668345,1589
2014,COUNCIL BLUFFS,41.2619444,-95.8608333,9.87713826541208,144.048313497452,62597
2014,CRESCENT,41.364996,-95.8580668,0.584722222222222,9.47746031746032,630
2014,CRESCO,43.3813568,-92.1140547,15.2314505609183,185.545880511349,3833
2014,CRESTON,41.0586002,-94.3613474,8.68110198624904,114.055656990069,7854
2014,CUMMING,41.4833235,-93.7624442,0.680100755667506,17.0569269521411,397
2014,DAKOTA CITY,42.7221935,-94.1971836,1.97841328413284,20.1129766297663,813
2014,DANVILLE,40.8643403,-91.3146139,0.596554487179487,10.754188034188,936
2014,DAVENPORT,41.5236437,-90.5776367,9.07109507515938,132.742886471311,102582
2014,DAYTON,42.2613645,-94.0685672,5.52863408521303,75.339373433584,798
2014,DE SOTO,41.5315745,-94.0077785,5.04458218549128,66.4945546372819,1089
2014,DE WITT,41.8239952,-90.5389662,4.73850629530714,53.5096337275849,5242
2014,DECORAH,43.3033056,-91.7857092,11.3924560515998,153.015018338181,7907
2014,DELMAR,42.0022453,-90.6070804,1.85378486055777,23.3682470119522,502
2014,DENISON,42.024988,-95.3588867,10.5429145668347,139.320872330214,8334
2014,DENVER,42.6713718,-92.3374045,3.1275204359673,38.5886539509537,1835
2014,DES MOINES,41.6005448,-93.6091064,10.028639899206,157.636414824324,210330
2014,DONNELLSON,40.6428152,-91.5646028,1.98745837957825,29.3074805771365,901
2014,DOWS,42.656564,-93.5010558,3.42169260700389,37.2666536964981,514
2014,DUBUQUE,42.5005583,-90.6645718,8.95659994217589,126.449654926104,58799
2014,DUMONT,42.748585,-92.9724184,4.31232057416268,43.8455821371611,627
2014,DUNLAP,41.8543292,-95.6019662,9.87799385875128,143.623275332651,977
2014,DURANT,41.5997498,-90.9107037,4.09620044052863,46.9092125550661,1816
2014,DYERSVILLE,42.4836415,-91.1140899,9.56369529019981,102.681962416746,4204
2014,DYSART,42.171659,-92.3062978,2.45649926144756,29.8748153618907,1354
2014,EAGLE GROVE,42.6641396,-93.9044473,5.76275957882422,68.3428107633811,3419
2014,EARLHAM,41.4915674,-94.1229834,1.30729537366548,15.8261423487544,1405
2014,EARLY,42.4613706,-95.1519373,2.63345864661654,34.9037406015038,532
2014,EDDYVILLE,41.1605646,-92.6313031,2.39115612648221,32.6246245059289,1012
2014,EDGEWOOD,42.6444313,-91.4012515,4.3383506343714,53.2289158016148,867
2014,ELDON,40.9186301,-92.2229585,2.61737704918033,33.254131147541,915
2014,ELDORA,42.3680382,-93.1057576,8.33854552183568,92.1182568467801,2702
2014,ELDRIDGE,41.6580864,-90.5845822,5.43905247111682,69.7796710526316,6232
2014,ELKADER,42.8538739,-91.4054159,3.84198268755153,50.7575762572135,1213
2014,ELLSWORTH,42.3124934,-93.5787757,8.10392927308448,100.994047151277,509
2014,ELMA,43.2466362,-92.4360102,12.6558441558442,148.160927643785,539
2014,ELY,41.8736182,-91.585175,1.19585342333655,14.5995226615236,2074
2014,EMMETSBURG,43.1127427,-94.6830357,11.3718249803201,147.011422198898,3811
2014,ESTHERVILLE,43.4013478,-94.8391532,7.47287057062053,91.0092380635502,6011
2014,EVANSDALE,42.4691543,-92.281017,7.68675187032419,95.7730049875312,4812
2014,EVERLY,43.1616378,-95.3280572,1.16738382099828,13.8101549053356,581
2014,EXIRA,41.591156,-94.8763141,3.348730964467,41.3141116751269,788
2014,FAIRBANK,42.6391512,-92.0471199,4.32452999104745,47.709811996419,1117
2014,FAIRFAX,41.9194471,-91.7810132,9.24809771726071e-002,1.50279134961954,2497
2014,FAIRFIELD,41.0076114,-91.9636914,5.69292862919531,77.1229235746058,9892
2014,FARLEY,42.4444448,-91.0051339,1.72998225901833,20.3710053222945,1691
2014,FARMINGTON,40.6403124,-91.7429429,3.25731895223421,40.5312942989214,649
2014,FAYETTE,42.8419255,-91.8021071,4.45744466800805,59.0374782025486,1491
2014,FLOYD,43.1277502,-92.7363031,32.2262195121951,453.716067073171,328
2014,FONDA,42.5813666,-94.8460957,1.99769357495881,25.9625041186161,607
2014,FONTANELLE,41.2897097,-94.5616359,8.10790094339623,104.042955974843,636
2014,FOREST CITY,43.2624685,-93.6371937,10.8745893479343,132.312336983574,4018
2014,FORT ATKINSON,43.1433068,-91.9326637,22.3913690476191,271.254107142857,336
2014,FORT DODGE,42.4974694,-94.1680158,9.69640249097326,130.185916264351,24649
2014,FORT MADISON,40.6297634,-91.314535,7.75662965382103,102.71439768592,10717
2014,FREDERICKSBURG,42.9652547,-92.1996196,4.15835140997831,41.0004013015184,922
2014,GARNAVILLO,42.8685981,-91.2359644,0.283884297520661,4.12809917355372,726
2014,GARNER,43.1023343,-93.6020858,4.49506758931445,50.2839813324751,3107
2014,GEORGE,43.3438624,-96.0022431,2.50390995260664,28.8837914691943,1055
2014,GILMORE CITY,42.7294176,-94.4477507,4.01945010183299,44.3293686354379,491
2014,GLADBROOK,42.1877647,-92.715199,3.82837078651685,37.5237415730337,890
2014,GLENWOOD,41.0469437,-95.7425056,4.63660765276985,54.7991795164668,5253
2014,GLIDDEN,42.0569297,-94.72887,1.65514640638864,21.9225465838509,1127
2014,GOLDFIELD,42.7349711,-93.9149462,3.54917763157895,36.6400657894737,608
2014,GOWRIE,42.2806289,-94.2907762,7.47812812812813,98.9035635635636,999
2014,GRAETTINGER,43.237733,-94.751303,4.4272503082614,49.5582244143033,811
2014,GRAND JUNCTION,42.0313859,-94.2371186,2.00560836501901,25.2569581749049,789
2014,GRAND MOUND,41.8247927,-90.6476151,4.73662884927066,55.7258184764992,617
2014,GRANGER,41.7610984,-93.8243923,2.0291928721174,23.2213487071978,1431
2014,GREENE,42.8958066,-92.8024158,2.66852678571429,29.5966428571429,1120
2014,GREENFIELD,41.3052657,-94.4613543,6.51266595857674,76.6918746680828,1883
2014,GRIMES,41.6883646,-93.7925199,7.38169726489322,102.670724990633,10676
2014,GRINNELL,41.7434092,-92.7232456,8.15206760748277,113.122361886008,9141
2014,GRISWOLD,41.234991,-95.1374929,0.778607723577236,7.69856707317073,984
2014,GRUNDY CENTER,42.3616501,-92.7685327,5.74707074428887,65.8587140751658,2714
2014,GUTHRIE CENTER,41.6772087,-94.5033044,4.23597157964309,50.0445076007931,1513
2014,GUTTENBERG,42.7899897,-91.1029068,11.0443847393874,144.852724341752,1861
2014,HAMBURG,40.6044458,-95.6577711,0.754805914972274,10.3783364140481,1082
2014,HAMPTON,42.7425009,-93.2103402,8.59060023310023,104.579447552448,4290
2014,HARLAN,41.653044,-95.3255541,11.8576619352259,158.381257497001,5002
2014,HARPERS FERRY,43.2005358,-91.1531852,5.99012539184953,70.8246081504702,319
2014,HARTLEY,43.1802719,-95.4770511,7.46607363861386,84.7991955445545,1616
2014,HAWARDEN,42.9963772,-96.4891976,3.95966287730302,46.3910270482164,2551
2014,HAZLETON,42.6174483,-91.9056039,3.15574572127139,43.9037652811736,818
2014,HIAWATHA,42.0491958,-91.6815252,2.97080844561745,37.3161091818308,7199
2014,HOLSTEIN,42.4891531,-95.545003,11.2569913731129,159.15264557872,1391
2014,HOLY CROSS,42.6005516,-90.9956854,14.3549868766404,195.394488188976,381
2014,HUBBARD,42.3055396,-93.3002055,5.21897482014388,51.4148800959233,834
2014,HUDSON,42.406653,-92.4554671,0.925419991600168,12.7106803863923,2381
2014,HUMBOLDT,42.7208047,-94.2152402,10.7970300261097,131.527763272411,4596
2014,HUMESTON,40.858892,-93.4974371,0.345061099796334,5.6889816700611,491
2014,HUXLEY,41.895265,-93.6007732,1.06501696832579,15.1449038461539,3536
2014,IDA GROVE,42.3462987,-95.4716235,7.96979264844486,91.5249905749293,2122
2014,INDEPENDENCE,42.4685978,-91.8893386,10.6638686131387,137.405471134705,6028
2014,INDIANOLA,41.3580484,-93.5574376,7.23548199392254,94.5885685653326,15467
2014,INWOOD,43.3072022,-96.4319799,10.2929408138101,133.363255240444,811
2014,IOWA CITY,41.6611277,-91.5301683,8.83826933441121,131.050554567502,74220
2014,IOWA FALLS,42.5198868,-93.2645741,12.1692059672762,162.54710105871,5195
2014,IRETON,42.97471,-96.3183585,2.22882059800664,35.5245681063123,602
2014,JEFFERSON,42.0172457,-94.3774232,5.71282112274025,69.5055114176974,4204
2014,JESUP,42.475543,-92.0637884,2.46761512542119,30.2311306626732,2671
2014,JEWELL JUNCTION,42.306818,-93.6400274,2.71347935973041,27.2437742207245,1187
2014,JOHNSTON,41.6709834,-93.7130493,4.07167002060275,57.5817435676297,20871
2014,KELLOGG,41.7180533,-92.9077629,4.25249155405405,60.6659628378379,592
2014,KEOKUK,40.4044731,-91.3963966,13.8130855877086,192.924933546988,10609
2014,KEOSAUQUA,40.7303057,-91.9623949,11.7282206969377,161.786546990496,947
2014,KEOTA,41.3639015,-91.9537859,2.22951030927835,23.2226082474227,970
2014,KINGSLEY,42.588324,-95.9675165,4.20836318051576,48.6733094555874,1396
2014,KNOXVILLE,41.320343,-93.09967,8.65644660596026,114.1212651766,7248
2014,LA PORTE CITY,42.3149911,-92.1921275,4.17116812227074,52.4635458515284,2290
2014,LAKE CITY,42.2674828,-94.7338704,5.52754491017964,62.3837844311377,1670
2014,LAKE MILLS,43.419329,-93.5325269,3.81182038834951,44.2380436893204,2060
2014,LAKE PARK,43.4532977,-95.3225004,2.53847845206684,26.3921987686895,1137
2014,LAKE VIEW,42.3116499,-95.053324,12.5158444444444,153.940035555556,1125
2014,LAMONI,40.622777,-93.9341158,2.01610900673401,26.2820664983165,2376
2014,LANSING,43.3609053,-91.218768,10.0777689030884,110.959957401491,939
2014,LARCHWOOD,43.4535861,-96.434205,17.8385440180587,261.697336343115,886
2014,LATIMER,42.7633056,-93.3682594,1.45031055900621,18.0688198757764,483
2014,LAURENS,42.8466398,-94.8519296,10.1897033898305,107.897296610169,1180
2014,LAWLER,43.0695607,-92.1557563,9.19290780141844,119.653687943262,423
2014,LE CLAIRE,41.5975061,-90.3462215,6.04387870416876,125.211667503767,3982
2014,LE GRAND,42.0069336,-92.7754761,5.67729915433404,72.7445983086681,946
2014,LE MARS,42.7941567,-96.1655778,10.2027840385206,138.364454461633,9761
2014,LENOX,40.8816547,-94.5619095,2.8028880866426,34.0174873646209,1385
2014,LEON,40.739724,-93.7477217,4.13694167104572,54.04140830268,1903
2014,LISBON,41.9211198,-91.3854466,3.59339237057221,42.4212534059946,2202
2014,LOGAN,41.6430472,-95.7891614,3.77918088737201,41.1169146757679,1465
2014,LOST NATION,41.9639095,-90.8176431,4.39439858490566,54.1961556603774,424
2014,LOVILIA,41.1358371,-92.9040881,0.177649325626204,2.54231213872832,519
2014,MADRID,41.8779511,-93.8156689,2.56848918083462,29.710200927357,2588
2014,MALVERN,41.006292,-95.5851456,2.35675917636526,30.5420769919427,1117
2014,MANCHESTER,42.4857853,-91.4579698,13.4135619948748,172.938836980091,5073
2014,MANNING,41.9091382,-95.0651328,4.48496942934783,59.5657404891304,1472
2014,MANSON,42.5291439,-94.5341421,6.59108359133127,82.0418761609907,1615
2014,MAPLETON,42.1658227,-95.7930621,13.7426688632619,185.54823723229,1214
2014,MAQUOKETA,42.0689088,-90.6656914,11.2664468191685,137.293102354316,5989
2014,MARCUS,42.8272084,-95.8077912,2.51658878504673,30.4303644859813,1070
2014,MARENGO,41.7927817,-92.0696253,10.6031337047354,116.193338639077,2513
2014,MARION,42.033279,-91.5968958,4.53406978301634,59.6539627645326,37330
2014,MARSHALLTOWN,42.0494674,-92.9080375,6.92519370021724,95.8927700941347,27620
2014,MARTENSDALE,41.3730474,-93.7357761,2.33411016949153,34.4357203389831,472
2014,MASON CITY,43.1535728,-93.2010367,10.9753124314843,138.834570635095,27366
2014,MAXWELL,41.8919322,-93.3996546,2.74945828819068,33.1773347778982,923
2014,MECHANICSVILLE,41.9027909,-91.2546067,2.16863718411552,27.7052166064982,1108
2014,MEDIAPOLIS,41.0080904,-91.1640369,5.57606416772554,78.1236277001271,1574
2014,MELBOURNE,41.9413772,-93.1032569,1.40568319226119,14.4343893591294,827
2014,MELCHER-DALLAS,41.2249966,-93.2413191,6.42732327243844,94.7740031771247,1259
2014,MERRILL,42.7197133,-96.2486357,1.13100272851296,17.0410231923602,733
2014,MILFORD,43.3246863,-95.149996,27.3730533465871,373.436073558648,3018
2014,MISSOURI VALLEY,41.5563713,-95.8877767,5.52758812615955,69.7727346938776,2695
2014,MONONA,43.0516494,-91.3893041,8.4696,107.910426666667,1500
2014,MONROE,41.5208256,-93.1038129,2.66936100491535,33.5452321135991,1831
2014,MONTEZUMA,41.585834,-92.5274091,11.9742026931254,168.483139617293,1411
2014,MONTICELLO,42.2383351,-91.1870937,10.1861111111111,122.307349019608,3825
2014,MONTROSE,40.5322644,-91.414876,0.354265536723164,5.82907344632768,885
2014,MORAVIA,40.8916777,-92.8190852,5.01360808709176,76.3780870917574,643
2014,MOUNT AYR,40.7147147,-94.235232,6.75031138790036,84.4181316725979,1686
2014,MOUNT PLEASANT,40.9716959,-91.5487714,9.25126882485474,124.662627771849,8433
2014,MOUNT VERNON,41.9219522,-91.4168371,31.4049275523852,421.920508247882,4486
2014,MUSCATINE,41.424473,-91.0432051,8.33015687583444,113.098291889186,23968
2014,NASHUA,42.9522221,-92.5386382,2.59824182603331,30.4745342381246,1621
2014,NEOLA,41.4488816,-95.6155615,3.91621229698376,52.0364501160093,862
2014,NEVADA,42.0227184,-93.4523014,5.1491985068072,63.2828312106573,6831
2014,NEW HAMPTON,43.0592724,-92.317864,6.23367612977984,67.7955996523754,3452
2014,NEW SHARON,41.4666683,-92.6474129,0.326297443841983,5.67293570875291,1291
2014,NEW VIRGINIA,41.1822168,-93.7288305,4.83881443298969,61.4634845360825,485
2014,NEWTON,41.7033177,-93.0573533,7.43805454545455,95.4645375206612,15125
2014,NORA SPRINGS,43.1427466,-93.0043668,1.72931965442765,19.9665874730022,1389
2014,NORTH ENGLISH,41.5138978,-92.0762891,5.58679060665362,51.3156164383562,1022
2014,NORTH LIBERTY,41.739482,-91.6080974,4.54279863159877,68.0091494570334,15931
2014,NORTHWOOD,43.4441245,-93.2210371,9.58942355889724,116.32554887218,1995
2014,NORWALK,41.475546,-93.6788304,3.79723976319684,46.0891090281204,10135
2014,OAKLAND,41.3094375,-95.3957997,5.7442103516921,70.9197677504977,1507
2014,OELWEIN,42.6784949,-91.9119586,8.91112059158134,105.334014301967,6153
2014,OGDEN,42.0395595,-94.0320167,3.07852768250857,37.469632533072,2041
2014,OKOBOJI,43.3863521,-95.1483293,2.78279339853301,35.3179339853301,818
2014,ONAWA,42.0266548,-96.0972376,7.80333182922596,106.952186740715,2881
2014,ORANGE CITY,43.0072087,-96.0583523,5.74486124556308,77.7606373023556,6198
2014,OSAGE,43.2841382,-92.8190838,5.59042829775588,65.9523918992884,3654
2014,OSCEOLA,41.0342618,-93.766759,8.89161303298472,115.966003620274,4972
2014,OSKALOOSA,41.2916728,-92.6493595,8.05673300594469,104.925569914707,11607
2014,OSSIAN,43.145809,-91.7632108,3.83455433455434,49.9098901098901,819
2014,OTHO,42.4246934,-94.1502372,2.5162213740458,30.8784732824427,524
2014,OTTUMWA,41.0160293,-92.4083022,6.87730466211826,96.1185294834308,24624
2014,PACIFIC JUNCTION,41.0187126,-95.8010851,16.3673960612691,222.526433260394,457
2014,PALO,42.0660485,-91.7961118,2.87502374169041,36.0058879392213,1053
2014,PANORA,41.6916535,-94.3630215,12.9418433179724,160.459382488479,1085
2014,PARKERSBURG,42.5774797,-92.7868634,5.07512755102041,55.9056428571428,1960
2014,PAULLINA,42.9791479,-95.6880657,7.26103736479843,80.0073647984267,1017
2014,PELLA,41.4080327,-92.916405,6.37643539515584,89.353254848982,10363
2014,PEOSTA,42.4491375,-90.8504116,1.54718788627936,21.2741841779975,1618
2014,PERRY,41.8385964,-94.1071797,5.28571516874768,62.3339349734207,8089
2014,PLEASANT HILL,41.5873903,-93.5196138,7.64571075799871,104.206614773459,9314
2014,PLEASANTVILLE,41.3869578,-93.2682683,2.59197124026363,32.6052846015578,1669
2014,POCAHONTAS,42.7355299,-94.6691467,8.81405172413793,95.6231149425287,1740
2014,POLK CITY,41.7713764,-93.7129997,3.73717325931066,47.9019916724497,4323
2014,POMEROY,42.5510885,-94.6838687,1.0776,11.481792,625
2014,POSTVILLE,43.084702,-91.5682015,1.51963866729235,15.913087752229,2131
2014,PRAIRIE CITY,41.599434,-93.2352053,1.34605032182563,15.0263311878291,1709
2014,PRESTON,42.0502844,-90.3960275,0.230061349693252,2.10141104294479,978
2014,PRIMGHAR,43.0869215,-95.627232,7.97684869169511,103.791547212742,879
2014,PRINCETON,41.6748689,-90.3409096,2.53557588805167,27.7295048439182,929
2014,RAYMOND,42.468826,-92.2200485,2.74402573529412,38.2008088235294,816
2014,RED OAK,41.0170937,-95.2214477,8.28445723684211,108.531652046784,5472
2014,REINBECK,42.323597,-92.5993615,1.64954240390482,18.7141427699817,1639
2014,REMSEN,42.8125933,-95.9733503,5.25395220588235,66.5604411764706,1632
2014,RICEVILLE,43.3638571,-92.5540687,3.10833333333333,35.041987654321,810
2014,RIVERSIDE,41.4797413,-91.5812759,13.2781818181818,215.152574162679,1045
2014,ROCK RAPIDS,43.4271945,-96.1758598,9.90014411990776,127.514880860876,2602
2014,ROCK VALLEY,43.2052594,-96.2950263,1.88365150284322,23.0507608989981,3693
2014,ROCKWELL,42.985244,-93.1918688,7.66133464180569,91.988233562316,1019
2014,ROCKWELL CITY,42.3952576,-94.6338671,3.51131480616534,38.25907986922,2141
2014,ROLFE,42.8127501,-94.5269204,3.8007602862254,54.1122719141324,559
2014,RUTHVEN,43.1291322,-94.8991531,4.65127840909091,47.7586505681818,704
2014,SAC CITY,42.4222033,-94.9897109,11.9854127798507,139.612849813433,2144
2014,SANBORN,43.1816421,-95.6555674,4.31498194945848,50.0631985559567,1385
2014,SCHALLER,42.4997048,-95.2930523,1.23909395973154,12.7028322147651,745
2014,SCHLESWIG,42.1652658,-95.4369432,8.11535187287174,116.757355278093,881
2014,SCRANTON,42.0224844,-94.5452524,2.81537735849057,35.287679245283,530
2014,SERGEANT BLUFF,42.4029802,-96.3588424,3.29940265486726,43.1843539823009,4520
2014,SHEFFIELD,42.8944129,-93.2118688,2.03324561403509,22.778649122807,1140
2014,SHELDON,43.1812107,-95.8569539,12.8586527122641,160.562806603774,5088
2014,SHELLSBURG,42.0945385,-91.8693231,8.23966876971609,102.97752891693,951
2014,SHENANDOAH,40.7667389,-95.3761506,10.6990838478391,147.012648874726,5021
2014,SIBLEY,43.3999861,-95.7516395,7.30208958020989,89.4280472263868,2668
2014,SIGOURNEY,41.3333445,-92.2046255,5.42018703241895,61.7090773067332,2005
2014,SIOUX CENTER,43.0797991,-96.1756935,7.29187106286021,96.2323053210026,7461
2014,SIOUX CITY,42.4999942,-96.4003069,7.37827573924488,106.810147184893,82821
2014,SIOUX RAPIDS,42.8933093,-95.1511051,9.48938223938224,113.513783783784,777
2014,SLATER,41.8778194,-93.6821269,1.99002324037185,26.5819986719788,1506
2014,SLOAN,42.2337584,-96.2244905,5.25165985699694,71.3993564862104,979
2014,SOLON,41.8072344,-91.4940604,5.31235756385069,70.148605108055,2545
2014,SPENCER,43.1450748,-95.144318,10.9611487691759,131.272728326793,11212
2014,SPIRIT LAKE,43.4226192,-95.1022313,32.6519629334396,425.197558788362,5018
2014,SPRINGVILLE,42.0594453,-91.4426703,1.72559262510975,19.9227129060579,1139
2014,ST. ANSGAR,43.3784811,-92.9203887,12.200821799308,149.35660899654,1156
2014,ST. CHARLES,41.2883257,-93.8093887,3.2312101910828,39.1863375796178,628
2014,ST. LUCAS,43.0665745,-91.9332498,27.8840579710145,363.092536231884,138
2014,STANWOOD,41.8930715,-91.1507132,2.03530966767372,35.179667673716,662
2014,STATE CENTER,42.0166544,-93.1635365,3.02149659863946,32.8939727891156,1470
2014,STORM LAKE,42.6430359,-95.2019399,10.4599427131072,142.8331604033,10910
2014,STORY CITY,42.1871601,-93.5955532,4.16626672484002,47.4374607329843,3438
2014,STRATFORD,42.2713655,-93.9271721,5.60344827586207,66.5105931034483,725
2014,STRAWBERRY POINT,42.6835955,-91.5340348,4.61739482200647,51.4354207119741,1236
2014,STUART,41.5034243,-94.3183715,8.14224406991261,98.1310237203496,1602
2014,SULLY,41.5783288,-92.8449164,1.2978102189781,18.1439902676399,822
2014,SUMNER,42.8474801,-92.0915633,3.43445744151319,39.6988003982081,2009
2014,SUTHERLAND,42.9741434,-95.4975058,4.92613268608414,59.7574919093851,618
2014,SWEA CITY,43.384403,-94.3149681,9.44165067178503,107.661573896353,521
2014,SWISHER,41.8458406,-91.693232,11.471474019088,275.446511134677,943
2014,TIFFIN,41.7069149,-91.6632783,2.02814264207753,27.8724012043658,2657
2014,TIPTON,41.7697434,-91.1279349,7.6183984375,90.21704375,3200
2014,TOLEDO,41.9972134,-92.5835266,16.5050068119891,205.569968210718,2202
2014,TRAER,42.1936007,-92.4654688,5.58299093655589,62.3765619335347,1655
2014,TREYNOR,41.2324965,-95.6130608,2.89740021008403,38.3586449579832,952
2014,TRIPOLI,42.8080363,-92.2582341,13.2119970193741,158.902049180328,1342
2014,URBANA,42.2241596,-91.8743444,2.05575736806031,24.0971144619602,1459
2014,URBANDALE,41.6266555,-93.7121656,3.49693783759248,53.3574290772094,44062
2014,VAN METER,41.5333223,-93.9543949,1.14588441330998,14.91,1142
2014,VILLISCA,40.9296034,-94.9766416,0.67713567839196,8.75520938023451,1194
2014,VINTON,42.1646477,-92.0185651,5.26975524475525,59.2069211344211,5148
2014,WALKER,42.2866572,-91.7807299,2.1,26.5396843434343,792
2014,WALL LAKE,42.2710952,-95.093047,1.7188679245283,19.5402893081761,795
2014,WALNUT,41.4774899,-95.2219405,2.95631443298969,43.9070231958763,776
2014,WAPELLO,41.1814193,-91.1854273,4.20120039196472,50.9814698677119,2041
2014,WASHINGTON,41.3014077,-91.6916417,10.912975836933,157.024067224622,7408
2014,WATERLOO,42.492786,-92.3425775,9.70738277826468,144.477751825884,68460
2014,WAUKEE,41.6119903,-93.8855768,4.78564639283833,75.4380984728805,18990
2014,WAUKON,43.2694208,-91.475695,13.4245449678801,169.373736616702,3736
2014,WAVERLY,42.7272032,-92.4668511,10.8531641168289,138.719143651897,10066
2014,WEBSTER CITY,42.4694321,-93.8159149,7.51947786025083,92.1065433836703,7814
2014,WELLMAN,41.4641806,-91.8382273,4.39205101327743,56.872215234102,1431
2014,WELLSBURG,42.4328011,-92.9250864,2.36494992846924,25.6527324749642,699
2014,WESLEY,43.0886148,-93.9931467,48.9455380577428,699.487139107612,381
2014,WEST BEND,42.9600447,-94.4450576,16.1673913043478,171.327773386034,759
2014,WEST BRANCH,41.6714086,-91.3465521,2.54533590072743,30.8673341891314,2337
2014,WEST BURLINGTON,40.8250386,-91.1565357,16.8908844765343,220.002481128979,3047
2014,WEST DES MOINES,41.5772115,-93.711332,9.90434855645501,163.501008687786,64113
2014,WEST LIBERTY,41.5700231,-91.2637695,2.98964592274678,48.1620198497854,3728
2014,WEST POINT,40.7167039,-91.4501542,15.0101351351351,228.64051975052,962
2014,WEST UNION,42.9627564,-91.8082167,10.4651618929016,121.968949771689,2409
2014,WHEATLAND,41.8316906,-90.8382014,1.68519781718963,19.8043656207367,733
2014,WHITTEMORE,43.0634809,-94.4221252,1.86483739837398,23.3284959349594,492
2014,WILLIAMSBURG,41.6611187,-92.0090673,5.41458528951487,62.8374115805947,3195
2014,WILTON,41.5889154,-91.0168179,2.31122103386809,27.3132192513369,2805
2014,WINDSOR HEIGHTS,41.6038268,-93.7105118,81.2959296379628,1168.45017385969,4889
2014,WINTERSET,41.3308237,-94.0138393,7.70047333848532,98.9955081143741,5176
2014,WINTHROP,42.4733189,-91.7343327,6.00347467608952,78.4248645465253,849
2014,WOODBINE,41.7340073,-95.7074104,3.0518811533052,37.1659493670886,1422
2014,WOODWARD,41.857276,-93.9222218,1.44500998003992,18.2936127744511,1503
2014,ZWINGLE,42.2977891,-90.6876307,23.1005555555556,305.176,90
2015,ACKLEY,42.555534,-93.0529775,3.6670032051282,40.5994294871795,1560
2015,ADAIR,41.50043,-94.6433504,3.6342032967033,53.1786126373626,728
2015,ADEL,41.6144325,-94.017453,6.17266195524146,81.2455995288575,4245
2015,AFTON,41.0284183,-94.1975786,2.73474065138721,34.1547165259349,829
2015,AKRON,42.8288818,-96.5594773,2.33020689655172,28.6432896551724,1450
2015,ALBIA,41.0300078,-92.811307,5.91177200313398,79.9126586576129,3829
2015,ALDEN,42.5202571,-93.3760389,10.2517342931937,137.642041884817,764
2015,ALGONA,43.0699663,-94.233019,15.8127010968921,200.261400365631,5470
2015,ALLISON,42.7535847,-92.7952244,5.46914480077745,59.2848396501458,1029
2015,ALTA,42.6749812,-95.3041656,0.707644628099174,8.07201446280992,1936
2015,ALTOONA,41.6435514,-93.4750836,10.1183026966557,144.239151554404,16984
2015,AMES,42.0307812,-93.6319131,8.38981518598217,121.299260528743,65060
2015,ANAMOSA,42.1083371,-91.2851594,8.04184494423112,97.226158347047,5469
2015,ANITA,41.4438761,-94.764146,6.93211297071129,86.0241004184101,956
2015,ANKENY,41.7317884,-93.6001278,7.01967299696991,104.454304664928,56764
2015,ANTHON,42.3883232,-95.8666772,11.4642355008787,157.18065026362,569
2015,ARLINGTON,42.7491501,-91.6712663,6.26439024390244,66.9587073170732,410
2015,ARMSTRONG,43.3960697,-94.4783082,3.05635545556805,36.694690663667,889
2015,ARNOLDS PARK,43.3727408,-95.1238841,24.8401944894652,354.940842787682,1234
2015,ATLANTIC,41.4036007,-95.0138776,11.5371725450022,154.6831099078,6833
2015,AUDUBON,41.7180421,-94.9324868,5.87636341100645,66.8638820029747,2017
2015,AURELIA,42.71276,-95.4366701,1.16703629032258,13.2714314516129,992
2015,AVOCA,41.4766571,-95.3380549,17.6848071808511,251.488450797872,1504
2015,BALDWIN,42.0741832,-90.8415301,24.0252358490566,276.509245283019,106
2015,BANCROFT,43.2927386,-94.2180192,30.7264478873239,452.446112676056,710
2015,BAXTER,41.8260998,-93.1515905,2.22214415231188,26.8823118766999,1103
2015,BEDFORD,40.666932,-94.721358,3.12240282685512,41.1852296819788,1415
2015,BELLE PLAINE,41.8955529,-92.2757404,8.33014141414142,110.150703030303,2475
2015,BELLEVUE,42.2588936,-90.4257531,9.28077895220588,128.339090073529,2176
2015,BELMOND,42.84608,-93.6140991,6.04896283491789,74.9329861711322,2314
2015,BETTENDORF,41.56085,-90.48344,9.42277372201099,153.055342346148,35505
2015,BEVINGTON,41.3605472,-93.7907776,47.8254032258064,634.903548387097,62
2015,BLOOMFIELD,40.7516884,-92.4149074,3.16583874665648,38.2369086740543,2617
2015,BLUE GRASS,41.5089194,-90.7659767,4.26772076372315,52.9322852028639,1676
2015,BONDURANT,41.7019329,-93.4607681,1.58949159327462,21.0281305044035,4996
2015,BOONE,42.0597047,-93.8802273,8.03108871730224,104.835416010085,12692
2015,BRITT,43.0977399,-93.8018875,6.29896097313735,64.2990623416117,1973
2015,BROOKLYN,41.7315717,-92.4453638,6.37239436619718,83.4962112676056,1420
2015,BUFFALO,41.4555873,-90.7209746,2.20219399538106,27.5470361816782,1299
2015,BUFFALO CENTER,43.3857909,-93.9466193,6.81974860335196,76.5702458100559,895
2015,BURLINGTON,40.8076529,-91.1128901,7.71734281778827,119.53723415978,25410
2015,BUSSEY,41.2066696,-92.8840881,4.20341463414634,38.3056097560976,410
2015,CAMANCHE,41.7853085,-90.2529064,1.61653420870767,21.5007279428703,4341
2015,CAMBRIDGE,41.8983187,-93.5291019,1.5623934226553,20.0293666260658,821
2015,CARLISLE,41.4986013,-93.4835466,3.74715091170825,47.5639467370441,4168
2015,CARROLL,42.0655986,-94.8672793,16.4709620786517,221.987166934189,9968
2015,CARTER LAKE,41.2905534,-95.9180689,1.71919018728568,24.3816987602216,3791
2015,CASCADE,42.2986159,-91.0148618,5.37153236459709,68.8031043593131,2271
2015,CASEY,41.5047095,-94.5183037,6.16728855721393,88.3998507462687,402
2015,CEDAR FALLS,42.5348993,-92.4453161,9.26246011392559,132.484565022421,41255
2015,CEDAR RAPIDS,41.9778795,-91.6656232,10.4746673363751,152.626216096009,130405
2015,CENTER POINT,42.1908265,-91.7851772,2.62925426418088,28.246572788576,2521
2015,CENTERVILLE,40.7290565,-92.8738196,10.9822040208488,148.610992181683,5372
2015,CENTRAL CITY,42.2038829,-91.5240561,5.20155634357762,60.3230338849488,1269
2015,CHARITON,41.0199996,-93.3140985,7.35820479354533,101.411879449454,4214
2015,CHARLES CITY,43.0663612,-92.6724112,10.5046415828303,138.795982562039,7455
2015,CHEROKEE,42.7496413,-95.5515431,10.6839612326044,137.592817097416,5030
2015,CLARINDA,40.7419352,-95.038313,5.44893410852713,76.0960981912144,5418
2015,CLARION,42.7316387,-93.732992,4.20151788941091,52.8360245753524,2767
2015,CLARKSVILLE,42.7847,-92.6676907,3.408392476934,39.4141802696948,1409
2015,CLEAR LAKE,43.1435564,-93.3788108,17.3644598155468,233.311665349144,7590
2015,CLINTON,41.8444735,-90.1887379,8.57226346685083,116.178462630448,26064
2015,CLIVE,41.6060873,-93.77236,3.0778044089787,47.410927148516,17419
2015,COLFAX,41.6770762,-93.2451249,5.15995855680156,60.0753632374451,2051
2015,COLO,42.0177653,-93.3152072,4.13310104529617,51.0165853658537,861
2015,COLUMBUS JUNCTION,41.2786364,-91.3598775,4.82991935483871,74.6477741935484,1860
2015,CONRAD,42.2247077,-92.8746455,4.09922727272727,49.0907,1100
2015,COON RAPIDS,41.8708192,-94.6774786,4.38293932230102,54.5617888100867,1269
2015,CORALVILLE,41.6822756,-91.5960643,16.0982160326087,277.482081715839,20608
2015,CORNING,40.9869306,-94.7335843,9.48315094339623,130.860579050098,1537
2015,CORWITH,42.9927444,-93.9574516,7.68057620817844,87.9017100371747,269
2015,CORYDON,40.7569499,-93.3188229,4.13607614852108,55.3095972309629,1589
2015,COUNCIL BLUFFS,41.2619444,-95.8608333,9.9908392574724,149.146492962922,62597
2015,CRESCENT,41.364996,-95.8580668,2.38194444444444,34.9189682539683,630
2015,CRESCO,43.3813568,-92.1140547,13.4229355596139,164.914085572659,3833
2015,CRESTON,41.0586002,-94.3613474,9.04903552330023,119.747038451744,7854
2015,CUMMING,41.4833235,-93.7624442,5.82808564231738,77.9789924433249,397
2015,DAKOTA CITY,42.7221935,-94.1971836,1.77029520295203,18.6874046740467,813
2015,DANVILLE,40.8643403,-91.3146139,0.58525641025641,9.17219017094017,936
2015,DAVENPORT,41.5236437,-90.5776367,9.33598361310951,141.338316956191,102582
2015,DAYTON,42.2613645,-94.0685672,5.61177944862155,78.6046365914787,798
2015,DE SOTO,41.5315745,-94.0077785,5.61613865932048,69.5050229568411,1089
2015,DE WITT,41.8239952,-90.5389662,4.61533765738268,51.5221690194582,5242
2015,DECORAH,43.3033056,-91.7857092,11.4522733021373,152.0436259011,7907
2015,DELAWARE,42.4752682,-91.3454214,10.9677884615385,147.978397435897,156
2015,DELHI,42.4297143,-91.3309789,0.507696390658174,8.30074309978769,471
2015,DELMAR,42.0022453,-90.6070804,2.43361553784861,31.7509561752988,502
2015,DENISON,42.024988,-95.3588867,10.6588976481881,142.797518598512,8334
2015,DENVER,42.6713718,-92.3374045,5.02525885558583,60.4006049046322,1835
2015,DES MOINES,41.6005448,-93.6091064,10.6092472685779,171.914480673228,210330
2015,DONNELLSON,40.6428152,-91.5646028,1.59023307436182,23.0593118756937,901
2015,DOWS,42.656564,-93.5010558,3.79902723735409,44.8225680933852,514
2015,DUBUQUE,42.5005583,-90.6645718,9.48029806629364,137.292597833296,58799
2015,DUMONT,42.748585,-92.9724184,3.8829346092504,39.7217224880383,627
2015,DUNLAP,41.8543292,-95.6019662,9.47945240532241,140.080491299898,977
2015,DURANT,41.5997498,-90.9107037,3.27330671806168,38.2609140969163,1816
2015,DYERSVILLE,42.4836415,-91.1140899,10.6563570409134,119.562471455756,4204
2015,DYSART,42.171659,-92.3062978,2.32799113737075,27.9821122599705,1354
2015,EAGLE GROVE,42.6641396,-93.9044473,5.8760163790582,71.8698947060544,3419
2015,EARLHAM,41.4915674,-94.1229834,1.57596085409253,19.2139857651246,1405
2015,EARLY,42.4613706,-95.1519373,3.94342105263158,52.2608270676692,532
2015,EDDYVILLE,41.1605646,-92.6313031,2.46136363636364,33.4594861660079,1012
2015,EDGEWOOD,42.6444313,-91.4012515,4.62053056516724,57.0877970011534,867
2015,ELDON,40.9186301,-92.2229585,2.65428961748634,32.0743278688525,915
2015,ELDORA,42.3680382,-93.1057576,7.87375092524056,90.6061584011843,2702
2015,ELDRIDGE,41.6580864,-90.5845822,6.12802471116816,83.0094175224647,6232
2015,ELKADER,42.8538739,-91.4054159,4.4002473206925,57.8966611706513,1213
2015,ELLSWORTH,42.3124934,-93.5787757,8.44646365422397,108.396660117878,509
2015,ELMA,43.2466362,-92.4360102,12.3769944341373,145.462597402597,539
2015,ELY,41.8736182,-91.585175,1.17796528447445,15.977193828351,2074
2015,EMMETSBURG,43.1127427,-94.6830357,10.7404093413802,138.410372605615,3811
2015,ESTHERVILLE,43.4013478,-94.8391532,7.36397022126102,92.01892530361,6011
2015,EVANSDALE,42.4691543,-92.281017,6.48820137157107,80.677684954281,4812
2015,EVERLY,43.1616378,-95.3280572,1.25688468158348,15.4330981067126,581
2015,EXIRA,41.591156,-94.8763141,3.8118654822335,49.4730710659899,788
2015,FAIRBANK,42.6391512,-92.0471199,3.39156222023277,38.8549597135184,1117
2015,FAIRFAX,41.9194471,-91.7810132,0.822657188626352,10.9642571085302,2497
2015,FAIRFIELD,41.0076114,-91.9636914,6.20003790942175,89.2366477961989,9892
2015,FARLEY,42.4444448,-91.0051339,1.80493790656416,22.2170845653459,1691
2015,FARMINGTON,40.6403124,-91.7429429,3.37950693374422,42.8402773497689,649
2015,FAYETTE,42.8419255,-91.8021071,4.92665995975855,62.1952112676056,1491
2015,FLOYD,43.1277502,-92.7363031,31.6357469512195,488.042286585366,328
2015,FONDA,42.5813666,-94.8460957,2.29176276771005,28.9415485996705,607
2015,FONTANELLE,41.2897097,-94.5616359,7.84944968553459,94.9447327044025,636
2015,FOREST CITY,43.2624685,-93.6371937,11.0057989049278,136.252242409159,4018
2015,FORT ATKINSON,43.1433068,-91.9326637,27.6725446428571,340.189434523809,336
2015,FORT DODGE,42.4974694,-94.1680158,10.3830341596008,141.468316361719,24649
2015,FORT MADISON,40.6297634,-91.314535,8.23503312494168,116.205315853317,10717
2015,FREDERICKSBURG,42.9652547,-92.1996196,4.09896963123644,39.8612147505423,922
2015,GARNER,43.1023343,-93.6020858,4.60144029610557,52.7411876408111,3107
2015,GEORGE,43.3438624,-96.0022431,3.42808056872038,40.9102085308057,1055
2015,GILMORE CITY,42.7294176,-94.4477507,3.88543788187373,43.284215885947,491
2015,GLADBROOK,42.1877647,-92.715199,3.61797752808989,36.2035842696629,890
2015,GLENWOOD,41.0469437,-95.7425056,4.80954216638112,58.4597030268418,5253
2015,GLIDDEN,42.0569297,-94.72887,2.05765306122449,26.400479148181,1127
2015,GOLDFIELD,42.7349711,-93.9149462,3.13519736842105,34.68625,608
2015,GOWRIE,42.2806289,-94.2907762,7.59484484484485,102.863323323323,999
2015,GRAETTINGER,43.237733,-94.751303,4.91029593094944,56.8865721331689,811
2015,GRAND JUNCTION,42.0313859,-94.2371186,1.79575411913815,24.3623827629911,789
2015,GRAND MOUND,41.8247927,-90.6476151,4.28095623987034,54.0747811993517,617
2015,GRANGER,41.7610984,-93.8243923,2.30400069881202,25.7243675751223,1431
2015,GREENE,42.8958066,-92.8024158,2.81803571428571,32.3038839285714,1120
2015,GREENFIELD,41.3052657,-94.4613543,6.01476367498672,73.158624535316,1883
2015,GRIMES,41.6883646,-93.7925199,7.59263769201948,106.095691270139,10676
2015,GRINNELL,41.7434092,-92.7232456,7.69428399518652,109.29189804179,9141
2015,GRISWOLD,41.234991,-95.1374929,0.259705284552846,2.93156504065041,984
2015,GRUNDY CENTER,42.3616501,-92.7685327,6.19101879145173,71.7065217391304,2714
2015,GUTHRIE CENTER,41.6772087,-94.5033044,4.5431758096497,54.9689358889623,1513
2015,GUTTENBERG,42.7899897,-91.1029068,9.759040838259,130.764626544868,1861
2015,HAMBURG,40.6044458,-95.6577711,1.59048059149723,22.2084565619224,1082
2015,HAMPTON,42.7425009,-93.2103402,8.22917832167832,103.828951048951,4290
2015,HARLAN,41.653044,-95.3255541,12.2972766893243,167.19487604958,5002
2015,HARPERS FERRY,43.2005358,-91.1531852,6.68894984326019,82.0789028213166,319
2015,HARTLEY,43.1802719,-95.4770511,7.23545792079208,86.3393873762376,1616
2015,HAWARDEN,42.9963772,-96.4891976,3.91919835358683,48.5095217561741,2551
2015,HAZLETON,42.6174483,-91.9056039,3.83789731051345,52.2449266503668,818
2015,HIAWATHA,42.0491958,-91.6815252,2.98860605639672,39.1007320461175,7199
2015,HOLSTEIN,42.4891531,-95.545003,11.4000718907261,169.514205607477,1391
2015,HOLY CROSS,42.6005516,-90.9956854,16.4304461942257,218.868713910761,381
2015,HOSPERS,43.0719637,-95.9047077,2.55896358543417,37.6179271708683,714
2015,HUBBARD,42.3055396,-93.3002055,5.28057553956835,51.0454676258993,834
2015,HUDSON,42.406653,-92.4554671,1.34628307433851,18.1295254094918,2381
2015,HUMBOLDT,42.7208047,-94.2152402,10.6830341601393,133.222950391645,4596
2015,HUMESTON,40.858892,-93.4974371,3.45198574338086,44.2474745417515,491
2015,HUXLEY,41.895265,-93.6007732,2.14964649321267,29.7280910633484,3536
2015,IDA GROVE,42.3462987,-95.4716235,11.5802309142319,148.325772855796,2122
2015,INDEPENDENCE,42.4685978,-91.8893386,10.4057855009954,134.344421035169,6028
2015,INDIANOLA,41.3580484,-93.5574376,7.41250404086119,98.4966005042995,15467
2015,INWOOD,43.3072022,-96.4319799,12.57065351418,173.769876695438,811
2015,IOWA CITY,41.6611277,-91.5301683,9.35259073026139,143.037164376179,74220
2015,IOWA FALLS,42.5198868,-93.2645741,12.1059817131858,164.279834456208,5195
2015,IRETON,42.97471,-96.3183585,1.82998338870432,28.7764119601329,602
2015,JEFFERSON,42.0172457,-94.3774232,9.51384395813511,130.856515223597,4204
2015,JESUP,42.475543,-92.0637884,2.13492137776114,26.1848109322351,2671
2015,JEWELL JUNCTION,42.306818,-93.6400274,3.1252948609941,30.2608677337827,1187
2015,JOHNSTON,41.6709834,-93.7130493,4.1029914235063,60.4775981026304,20871
2015,KELLOGG,41.7180533,-92.9077629,4.36330236486486,56.0483108108108,592
2015,KEOKUK,40.4044731,-91.3963966,15.0125883683665,223.675448204355,10609
2015,KEOSAUQUA,40.7303057,-91.9623949,11.1671330517423,154.638173178458,947
2015,KEOTA,41.3639015,-91.9537859,2.12809278350515,22.5481546391753,970
2015,KINGSLEY,42.588324,-95.9675165,4.16618911174785,49.457729226361,1396
2015,KNOXVILLE,41.320343,-93.09967,8.6666873620309,118.311852924945,7248
2015,LA PORTE CITY,42.3149911,-92.1921275,3.84311135371179,48.6064454148472,2290
2015,LAKE CITY,42.2674828,-94.7338704,6.32425149700599,69.2121676646707,1670
2015,LAKE MILLS,43.419329,-93.5325269,5.24089805825243,61.4949611650485,2060
2015,LAKE PARK,43.4532977,-95.3225004,2.71174142480211,30.9174494283201,1137
2015,LAKE VIEW,42.3116499,-95.053324,13.0633555555556,162.605671111111,1125
2015,LAMONI,40.622777,-93.9341158,2.19986321548822,31.1442676767677,2376
2015,LANSING,43.3609053,-91.218768,9.6606762513312,102.896208732694,939
2015,LARCHWOOD,43.4535861,-96.434205,18.0200338600452,267.500259593679,886
2015,LATIMER,42.7633056,-93.3682594,3.02743271221532,32.8092753623188,483
2015,LAURENS,42.8466398,-94.8519296,8.82175847457627,92.3240254237288,1180
2015,LAWLER,43.0695607,-92.1557563,13.0756501182033,190.049787234043,423
2015,LE CLAIRE,41.5975061,-90.3462215,7.65904068307383,151.643475640382,3982
2015,LE GRAND,42.0069336,-92.7754761,5.33493657505285,69.2948837209302,946
2015,LE MARS,42.7941567,-96.1655778,9.97889970289929,137.073357237988,9761
2015,LENOX,40.8816547,-94.5619095,2.89927797833935,37.7770758122744,1385
2015,LEON,40.739724,-93.7477217,3.85432212296374,55.9482501313715,1903
2015,LISBON,41.9211198,-91.3854466,3.70767484105359,43.6348410535877,2202
2015,LOGAN,41.6430472,-95.7891614,4.32651877133106,47.5001433447099,1465
2015,LOHRVILLE,42.2702588,-94.5485865,0.4575,7.4304,350
2015,LOST NATION,41.9639095,-90.8176431,3.67806603773585,45.0165566037736,424
2015,LOVILIA,41.1358371,-92.9040881,1.3611753371869,22.4040269749518,519
2015,MADRID,41.8779511,-93.8156689,2.80974690880989,33.7248918083462,2588
2015,MALVERN,41.006292,-95.5851456,2.09758281110116,26.899588182632,1117
2015,MANCHESTER,42.4857853,-91.4579698,12.7261827321112,166.464914251922,5073
2015,MANLY,43.2907924,-93.2032593,1.33576335877863,19.020641221374,1310
2015,MANNING,41.9091382,-95.0651328,4.87837975543478,68.2106046195652,1472
2015,MANSON,42.5291439,-94.5341421,6.86204334365325,84.1945882352941,1615
2015,MAPLETON,42.1658227,-95.7930621,13.9871935749588,187.759761120264,1214
2015,MAQUOKETA,42.0689088,-90.6656914,11.6117715812323,144.418515611955,5989
2015,MARCUS,42.8272084,-95.8077912,2.85700934579439,35.590476635514,1070
2015,MARENGO,41.7927817,-92.0696253,10.925079586152,122.771500198965,2513
2015,MARION,42.033279,-91.5968958,4.48330833110099,59.5138087329226,37330
2015,MARSHALLTOWN,42.0494674,-92.9080375,7.32328044895004,106.620403692976,27620
2015,MARTENSDALE,41.3730474,-93.7357761,2.15752118644068,30.0114830508475,472
2015,MASON CITY,43.1535728,-93.2010367,11.3798849302054,147.325462617847,27366
2015,MAXWELL,41.8919322,-93.3996546,3.03680931744312,37.3765872156013,923
2015,MECHANICSVILLE,41.9027909,-91.2546067,1.97003610108303,26.5246570397112,1108
2015,MEDIAPOLIS,41.0080904,-91.1640369,4.68899301143583,69.1613659466328,1574
2015,MELBOURNE,41.9413772,-93.1032569,0.705562273276904,8.93869407496977,827
2015,MELCHER-DALLAS,41.2249966,-93.2413191,7.32531771247021,108.101056393963,1259
2015,MERRILL,42.7197133,-96.2486357,0.882264665757162,11.2838199181446,733
2015,MILFORD,43.3246863,-95.149996,30.0145626242545,427.660699138502,3018
2015,MINDEN,41.4669362,-95.5427822,0.886279461279461,14.1910606060606,594
2015,MISSOURI VALLEY,41.5563713,-95.8877767,6.71756029684601,89.7432356215214,2695
2015,MONONA,43.0516494,-91.3893041,8.93335,118.47574,1500
2015,MONROE,41.5208256,-93.1038129,2.93330147460404,38.554647733479,1831
2015,MONTEZUMA,41.585834,-92.5274091,12.0339475549256,164.005690999291,1411
2015,MONTICELLO,42.2383351,-91.1870937,10.7476078431373,129.842726797386,3825
2015,MONTROSE,40.5322644,-91.414876,1.0764406779661,13.8685649717514,885
2015,MORAVIA,40.8916777,-92.8190852,5.99066874027994,88.1687247278383,643
2015,MOUNT AYR,40.7147147,-94.235232,6.57194543297746,82.2543357058126,1686
2015,MOUNT PLEASANT,40.9716959,-91.5487714,9.32865231827345,128.711433653504,8433
2015,MOUNT VERNON,41.9219522,-91.4168371,36.2070942933571,506.308765046812,4486
2015,MUSCATINE,41.424473,-91.0432051,8.41940633344459,114.770627086115,23968
2015,NASHUA,42.9522221,-92.5386382,2.73497840838988,32.8645219000617,1621
2015,NEOLA,41.4488816,-95.6155615,3.87848027842227,51.3598955916474,862
2015,NEVADA,42.0227184,-93.4523014,5.17080222515005,64.3574220465525,6831
2015,NEW HAMPTON,43.0592724,-92.317864,5.74535052143685,60.5786210892236,3452
2015,NEW SHARON,41.4666683,-92.6474129,1.75352439969016,23.5083656080558,1291
2015,NEW VIRGINIA,41.1822168,-93.7288305,5.12675257731959,68.9729484536083,485
2015,NEWTON,41.7033177,-93.0573533,7.80464628099173,100.515807603306,15125
2015,NORA SPRINGS,43.1427466,-93.0043668,1.80442764578834,22.1953347732181,1389
2015,NORTH ENGLISH,41.5138978,-92.0762891,1.81641389432485,16.2274559686888,1022
2015,NORTH LIBERTY,41.739482,-91.6080974,4.74409484652564,71.8030619546796,15931
2015,NORTHWOOD,43.4441245,-93.2210371,10.2518170426065,120.26456641604,1995
2015,NORWALK,41.475546,-93.6788304,4.28366551554021,56.007727676369,10135
2015,OAKLAND,41.3094375,-95.3957997,6.24145653616456,78.9905374917054,1507
2015,OELWEIN,42.6784949,-91.9119586,9.89930570453437,116.364895173086,6153
2015,OGDEN,42.0395595,-94.0320167,3.14465948064674,38.1248750612445,2041
2015,OKOBOJI,43.3863521,-95.1483293,2.65299511002445,37.3074694376528,818
2015,ONAWA,42.0266548,-96.0972376,7.6128698368622,105.591593196807,2881
2015,ORANGE CITY,43.0072087,-96.0583523,6.06905856727977,82.5784624072281,6198
2015,OSAGE,43.2841382,-92.8190838,6.03139709906951,69.8862370005473,3654
2015,OSCEOLA,41.0342618,-93.766759,9.98792739340306,137.522970635559,4972
2015,OSKALOOSA,41.2916728,-92.6493595,7.94281468079607,106.824413715861,11607
2015,OTHO,42.4246934,-94.1502372,2.74293893129771,31.7168702290076,524
2015,OTTUMWA,41.0160293,-92.4083022,7.47661643112411,107.954837962963,24624
2015,PACIFIC JUNCTION,41.0187126,-95.8010851,14.87795404814,218.245995623632,457
2015,PALO,42.0660485,-91.7961118,3.16011396011396,43.64081671415,1053
2015,PANORA,41.6916535,-94.3630215,12.7515898617512,163.01265437788,1085
2015,PARKERSBURG,42.5774797,-92.7868634,4.88109693877551,53.8307091836735,1960
2015,PAULLINA,42.9791479,-95.6880657,7.5330383480826,82.4303736479843,1017
2015,PELLA,41.4080327,-92.916405,6.20333667856798,90.4284435009167,10363
2015,PEOSTA,42.4491375,-90.8504116,1.6985630407911,25.6194808405439,1618
2015,PERRY,41.8385964,-94.1071797,5.59453306960069,69.3678996167635,8089
2015,PLEASANT HILL,41.5873903,-93.5196138,8.75552458664376,126.977554219455,9314
2015,PLEASANTVILLE,41.3869578,-93.2682683,2.86797483523068,39.1556920311564,1669
